Restaurant ID,Restaurant Name,Restaurant Cuisine,Restaurant Rating,Estimate time of Delivery,Restaurant Distance from Delivery Location,Is promo available,Restaurant latitude,Restaurant longitude,Estimate Delivery Fee,Restaurant Image Link,Promotional Offers
SGDD04944,McDonald's - Boat Quay,"Burger, Fast Food, Halal",4.2,20,1.562,True,1.2857211372800634,103.84982956837393,460,https://food-cms.grab.com/compressed_webp/merchants/SGDD04944/hero/d2447ac38a2541769b115b2a1d25291d_1677816675499200090.webp,"['zeusPromoShortTag', 'mfcPromoTag']"
4-C6K3LLJBMFKZCT,Burger King - Boat Quay,"Burgers, Fast Food",5,30,1.405,False,1.285784424,103.8496719,410,https://food-cms.grab.com/compressed_webp/merchants/4-C6K3LLJBMFKZCT/hero/c1cd7fe27ff742d5a4bf4dd216b9a3a2_1714530917680052066.webp,
4-CZDWARLXDBJYKE,Lucky Cafe - North Canal Road,"Chinese, Noodles, Western, Filipino",4.3,30,1.427,False,1.286364,103.84841,410,https://food-cms.grab.com/compressed_webp/merchants/4-CZDWARLXDBJYKE/hero/67a9ec9da44e49aa8e7042e8a9dff860_1588835556299839244.webp,
4-C4NBHA5KRYCYJE,Eat Bar - South Bridge Road,"Western, Chinese, Local & Malaysian",4.2,25,1.327,True,1.288056684,103.8486969,400,https://food-cms.grab.com/compressed_webp/merchants/4-C4NBHA5KRYCYJE/hero/867bfbeacd2f4a7f86dc0d4bb2e540ce_1698203132044072519.webp,['zeusPromoShortTag']
4-C4ACNJ5UV6LGA6,Viet'Spice - Hương vị Việt - Circular Road,"Vietnamese, Salad, Seafood, Noodles, Drinks & Beverages",3.7,30,1.268,True,1.287620684,103.8489859,400,https://food-cms.grab.com/compressed_webp/merchants/4-C4ACNJ5UV6LGA6/hero/81d0ef72-af9e-4ca7-a515-83ef21beaf81__store_cover__2023__04__11__02__16__51.webp,"['mfcPromoTag', 'mfcPromoTag']"
4-C4MDVPMAFGAJUE,SF Fruits & Juices - Fullerton Waterboat House,"Healthy, Drinks & Beverages, Fresh Produce",4.3,25,1.734,False,1.2870988755951491,103.8535542257581,420,https://food-cms.grab.com/compressed_webp/merchants/4-C4MDVPMAFGAJUE/hero/f46722ef8eb44d39a2b201efa20c4914_1696402075287957203.webp,
4-C3UHAXDTJBDEGN,Hot Shotz - Canton Street,"Western, Snack",4.5,30,1.594,True,1.286330684,103.8494259,410,https://food-cms.grab.com/compressed_webp/merchants/4-C3UHAXDTJBDEGN/hero/8f721ac29c884b39885ab1adb37ec3c6_1665111689146191695.webp,"['mfcPromoTag', 'mfcPromoTag']"
4-C4DUNYMVBAL2FA,uMart@BoatQuay - Lorong Telok,"Alcohol, Snacks, Groceries, Convenience, Drinks & Beverages",4.7,20,1.338,True,1.287214,103.848683,330,https://food-cms.grab.com/compressed_webp/merchants/4-C4DUNYMVBAL2FA/hero/c909b3ceb41f45ccbc22d68cf4b35223_1687168584666748724.webp,"['zeusPromoShortTag', 'mfcPromoTag']"
4-C4DUNYMVAUW2NT,uBooze@BoatQuay - Lorong Telok,"Alcohol, Snacks, Beer, Convenience, Drinks & Beverages",4.3,20,1.338,True,1.287214,103.848683,330,https://food-cms.grab.com/compressed_webp/merchants/4-C4DUNYMVAUW2NT/hero/06721da861df4e9fa9f167aba9deae7f_1687169005933947039.webp,"['zeusPromoShortTag', 'mfcPromoTag']"
4-C4BFVF3DCBDUCE,Dabao Bento - High Street Plaza,"Japanese, Bento, Fried Chicken",4.5,25,0.899,True,1.2903829531375,103.849297971757,,https://food-cms.grab.com/compressed_webp/merchants/4-C4BFVF3DCBDUCE/hero/ac5c8cbd-afd1-441e-adcb-4606544a4272__store_cover__2023__05__05__12__05__58.webp,['mfcPromoTag']
4-C4BFUFV3JAMCRE,LaPasta - High Street Plaza,"Italian, Pasta",4.8,25,0.899,True,1.2903829531375,103.849297971757,,https://food-cms.grab.com/compressed_webp/merchants/4-C4BFUFV3JAMCRE/hero/b8395813-f426-48bc-985e-b221a6e87654__store_cover__2023__05__05__12__03__15.webp,"['zeusPromoShortTag', 'omegaPromoTag']"
4-C3X1VRMCLN6WVX,Fat Bao Bao - High Street Plaza,"Local & Malaysian, Snack",4.5,25,0.911,True,1.2903829531375,103.849297971757,,https://food-cms.grab.com/compressed_webp/merchants/4-C3X1VRMCLN6WVX/hero/ac3684d5-20ce-4095-bd47-560ab590bd87__store_cover__2023__05__05__12__09__39.webp,['mfcPromoTag']
4-C2THARCHMENDVT,JonesMart - High Street Plaza,"Alcohol, Beverages, Convenience, Mart, Islandwide Delivery",4.8,65,0.495,False,1.2908608824785464,103.84941059663592,1200,https://food-cms.grab.com/compressed_webp/merchants/4-C2THARCHMENDVT/hero/d8c316ab8be2473dbdb5fbd757e93d71_1620703847662082289.webp,
4-C6AZTZJDE4C1G2,luckin coffee - Collyer Quay Centre,"Bakery & Cake, Breakfast & Brunch, Coffee & Tea, Dessert, Drinks & Beverages",5,30,1.73,True,1.284189,103.852422,,https://food-cms.grab.com/compressed_webp/merchants/4-C6AZTZJDE4C1G2/hero/1b6f707c7a5a4b1ebfff2cad3c813411_1702270792119838532.webp,"['zeusPromoShortTag', 'mfcPromoTag']"
4-C2TYVGBWUFVVHA,Sinfonia Ristorante - Victoria Memorial Hall,Italian,4,20,0.06879088950817094,False,1.288532,103.851568,,https://food-cms.grab.com/compressed_webp/merchants/4-C2TYVGBWUFVVHA/hero/5707921440f04a85a850a8ac83979c55_1629085444905478471.webp,
4-CZDCKELAENM3NA,Tribe Restaurant - Old Parliament House,"Western, Burgers",5,20,0.10447028147538603,False,1.288543,103.851054,,https://food-cms.grab.com/compressed_webp/merchants/4-CZDCKELAENM3NA/hero/ae25a90b9aae4b7e99001d73ab0324fd_1586249143681878859.webp,
4-CZDTEXAWGTMYLE,Empress - Asian Civilisations Museum,"Chinese, Local & Malaysian, Seafood",5,25,0.1073020199356165,False,1.2871855,103.8512007,,https://food-cms.grab.com/compressed_webp/merchants/4-CZDTEXAWGTMYLE/hero/7f4aa98427a34d3788e8bc3e3e6c34b3_1600657385311287218.webp,
4-C4DALB43TY2WCJ,Picotin - Waterboat House,"Western, Drinks & Beverages, Pizza, Pasta, Snack",,25,1.735,False,1.287081,103.853392,,https://food-cms.grab.com/compressed_webp/merchants/4-C4DALB43TY2WCJ/hero/94c53e649fad42848cc0c60e30423826_1686050778873730126.webp,
4-C3TCA352NN3GCA,The Fullerton Hotel Singapore Festive Store - The Fullerton Hotel,Mart,5,25,1.891,False,1.286265965,103.8526989,,https://food-cms.grab.com/compressed_webp/merchants/4-C3TCA352NN3GCA/hero/f1f9ee25dda049e68ba791e13ceeb0a0_1660271167943234139.webp,
4-CZKXEEBHJ3XDNJ,SF Farm Mart - The Fullerton Waterboat House,"Mart, Groceries",4.1,25,1.734,False,1.2870988755951491,103.8535542257581,,https://food-cms.grab.com/compressed_webp/merchants/4-CZKXEEBHJ3XDNJ/hero/12611f129f3743ae9c023d5f11b3bbb0_1593422840239833283.webp,
4-CZD3LRMAWEKVLJ,Tandoori Zaika - 70 Boat Quay,"Indian, Salad, Seafood, Vegetarian Friendly",4.3,35,1.307,False,1.2879324,103.849367,,https://food-cms.grab.com/compressed_webp/merchants/4-CZD3LRMAWEKVLJ/hero/f16271f786a24ce7a0ce8486115202d8_1627296644855750291.webp,
4-C2VKKAVDLEXCA6,The Salad Shop - UOB Plaza 2,"Vegetarian Friendly, Salad, Healthy, Vegan, Group Friendly",4.4,40,1.547,False,1.285584816,103.8512639,,https://food-cms.grab.com/compressed_webp/merchants/4-C2VKKAVDLEXCA6/hero/c117acbb9cdd41d8bb271e27ada4cc2c_1630487838875622884.webp,
SGDD07393,Indian House/Dumpukht Grills & Curry - Boat Quay,"Indian, Vegetarian Friendly, Seafood",3.4,25,1.323,False,1.287754,103.84936,,https://food-cms.grab.com/compressed_webp/merchants/SGDD07393/hero/f54422da75504e9f96c5dd7419fe71da_1682666212276836527.webp,
4-CZEXJE2USE4HJN,Shangdong Restaurant - Boat Quay,"Chinese, Dim Sum, Seafood",4,35,1.317,False,1.2878081535179422,103.8493476,,https://food-cms.grab.com/compressed_webp/merchants/4-CZEXJE2USE4HJN/hero/b28c4b6db6d144948650d23f9a33192d_1589441315313311413.webp,
4-CZACRXVZNJMETT,Dum Pukht Curry - Boat Quay,"Indian, Local & Malaysian, Seafood",3.8,35,1.325,False,1.2877389,103.8493482,,https://food-cms.grab.com/compressed_webp/merchants/4-CZACRXVZNJMETT/hero/844cc5b3407740eebe3a30e513849d74_1580275260092443877.webp,
4-C4EUGETXNZEJJA,Surrey Hills Deli - Battery Road,"Coffee & Tea, Western, Breakfast & Brunch, Seafood, Snack",5,35,1.538,False,1.285505316,103.8516629,,https://food-cms.grab.com/compressed_webp/merchants/4-C4EUGETXNZEJJA/hero/082f8878255e443dad2d25d651c7bc73_1689131280927155945.webp,
4-C3XWLKDXEKKUJA,Starbucks - Battery Road,"Coffee & Tea, Bakery & Cake, Drinks & Beverages",3.7,30,1.63,True,1.285505316,103.8516629,,https://food-cms.grab.com/compressed_webp/merchants/4-C3XWLKDXEKKUJA/hero/75c46e99915e4ba299f64071b9c93e18_1710522252703835893.webp,['zeusPromoShortTag']
4-CZNFGN3GT3UYJN,BQ Bar - Boat Quay,"BBQ & Grill, Western, Salad",5,25,1.483,False,1.2865752707440663,103.84972304799147,,https://food-cms.grab.com/compressed_webp/merchants/4-CZNFGN3GT3UYJN/hero/fdc9c333740b4ecb9f23a80efa6feb9e_1598541935590944612.webp,
4-CZLGVPX1WAB2WE,Biryani Bae - Boat Quay,"Indian, Dessert, Drinks & Beverages",3.2,25,1.381,False,1.28735388,103.84934126557049,,https://food-cms.grab.com/compressed_webp/merchants/4-CZLGVPX1WAB2WE/hero/d6e9d54ec9a2423f970e50172c4a43da_1594695527475491179.webp,
SGDD00657,Kinara - Boat Quay,"Indian, Vegetarian, Seafood, Salad, Drinks & Beverages",3.9,30,1.381,False,1.2873507,103.8493375,,https://food-cms.grab.com/compressed_webp/merchants/SGDD00657/hero/60acada102c446c699103a31b7f9ac20_1560743531458013984.webp,
SGDD01002,Sahara Bar & Restaurant - 58 Boat Quay,"Middle Eastern, Western",3.7,30,1.404,False,1.2873979333333332,103.8493093,,https://food-cms.grab.com/compressed_webp/merchants/SGDD01002/hero/86fc15f26e31498d83e7592dee04bc47_1605089391573201020.webp,
SGDD01175,Tong Fu Ju - 50 Boat Quay,"Chinese, Seafood, Noodles",4.6,30,1.444,False,1.2870869,103.8493938,,https://food-cms.grab.com/compressed_webp/merchants/SGDD01175/hero/upload-photo-Hero_Photo_c6fb468e8f784969ab6c047a1af94f6a_1555562237850007338.webp,
4-C3THEFNCC3EXTJ,Three Amigos Mexican and Indian - Boat Quay,"Indian, Western, Mexican, Pizza, Islandwide Delivery",3.7,93,1.312,False,1.28827029100952,103.849253983276,1000,https://food-cms.grab.com/compressed_webp/merchants/4-C3THEFNCC3EXTJ/hero/8eddd310e2e04161a8496f37eeea6542_1660721582278765898.webp,
4-C3W2TJE3ANKWJA,Sultan Palace Turkish & Lebanese Cuisine - 73 Boat Quay,"Indian, Middle Eastern, Salad, Seafood, Pizza",3.9,30,1.327,False,1.288086924,103.8492329,,https://food-cms.grab.com/compressed_webp/merchants/4-C3W2TJE3ANKWJA/hero/d7b4c3b3743f43fb9678f2988fd2b597_1687407071457669240.webp,
4-CZM3CECKKFECEA,Curry Home - Boat Quay,"Indian, Vegetarian Friendly, Fried Chicken",5,30,1.415,False,1.28734945,103.84929942500001,,https://food-cms.grab.com/compressed_webp/merchants/4-CZM3CECKKFECEA/hero/358e6c39c6ee4642bf1353c04f76aaec_1597918350604516798.webp,
4-C6LVLKKTL6LBV2,Maharaja Palace - Boat Quay,"Indian, Seafood, Drinks & Beverages",,25,1.322,False,1.288131684,103.8492136,,https://food-cms.grab.com/compressed_webp/merchants/4-C6LVLKKTL6LBV2/hero/739b2f9e032b4866a743f93bce58c1ae_1715316417201384856.webp,
4-CZLCNULFTNVKEN,Indian House - Boat Quay,"Fried Chicken, Indian, Vegetarian Friendly",4.1,55,1.453,True,1.2869870454508168,103.84938902597231,1000,https://food-cms.grab.com/compressed_webp/merchants/4-CZLCNULFTNVKEN/hero/2ec3404bfb9e4d5c92fe93ffb1c331b7_1596103096346870884.webp,"['mfcPromoTag', 'mfcPromoTag']"
4-C6CHAK2DVKBDLJ,Bombay Kitchen - Indian And Mexican Cuisine - Boat Quay,"Indian, Mexican, Vegetarian Friendly, Alcohol",,30,1.305,False,1.2884124936702166,103.84923897276542,,https://food-cms.grab.com/compressed_webp/merchants/4-C6CHAK2DVKBDLJ/hero/14458be50a894cbd8b4e5fe29b0ee5aa_1705118932684472002.webp,
4-C6EATNDTCXCYPE,Shrimp Prawn Seafood - Boat Quay,"Thai, Seafood, BBQ & Grill",3,30,1.439,False,1.28712590659741,103.84932815038582,,https://food-cms.grab.com/compressed_webp/merchants/4-C6EATNDTCXCYPE/hero/4c15f569574b458a8f9e3a8cefe39b19_1710212696733678361.webp,
4-C25FDBVTE3MTNA,Rubato - Boat Quay,"Italian, Pizza, Steak, Pasta",,30,1.334,False,1.28769,103.8492,,https://food-cms.grab.com/compressed_webp/merchants/4-C25FDBVTE3MTNA/hero/e1569808902e4ddf9da5ff83b5e92541_1636518650378187508.webp,
4-C2CVJPVCWCCKME,Tuca Restaurant - Boat Quay,"Italian, Pasta, Pizza, Spanish",4.1,30,1.513,False,1.2863031,103.8497744,,https://food-cms.grab.com/compressed_webp/merchants/4-C2CVJPVCWCCKME/hero/2d481ce275a64752821243e15d256a2f_1647929111323084111.webp,
4-C3JKPEECPFKDJT,Haldi - The Taste of India - 61 Boat Quay,Indian,3.9,30,1.389,True,1.28751,103.84922,,https://food-cms.grab.com/compressed_webp/merchants/4-C3JKPEECPFKDJT/hero/ed2f0b1f-832e-46ba-9ecd-e83a203b5a54__store_cover__2023__04__07__05__04__06.webp,['mfcPromoTag']
4-C2M3GP62N8N3BA,Kaayaloram Kerala Restaurant - Boat Quay,"Local & Malaysian, Indian, Vegetarian Friendly",4,25,1.312,False,1.28824859,103.849193,,https://food-cms.grab.com/compressed_webp/merchants/4-C2M3GP62N8N3BA/hero/bb14805518ca4252bd090fa66a011a9f_1631083647819127617.webp,
SGDD01246,Vespetta Italian Restaurant - 40 Boat Quay,"Italian, Pizza, Pasta, Dessert, Western",3.7,30,1.483,False,1.28650925,103.84960121600288,,https://food-cms.grab.com/compressed_webp/merchants/SGDD01246/hero/c00694c1ba094410be06887e49e5430d_1631186939598388809.webp,
4-C3K3ATAUNXTXNX,Pilcrow - Boat Quay Conservation Area,"Western, Pizza, Dessert",,25,1.392,False,1.287490684,103.8491959,,https://food-cms.grab.com/compressed_webp/merchants/4-C3K3ATAUNXTXNX/hero/0a0250133a6746cbbe86b9f06218e3a7_1653904011798100447.webp,
4-C32KFE3EFB31T2,Briyani Hut - Boat Quay,"Indian, Fried Chicken, Local & Malaysian",4.3,30,1.351,True,1.287531,103.849186,,https://food-cms.grab.com/compressed_webp/merchants/4-C32KFE3EFB31T2/hero/4c5c7e6179814958a36ae6dbfd919b14_1672109722080266968.webp,['mfcPromoTag']
4-C32KFE3EET3HAX,Mr Tandoor - Boat Quay,"Indian, Biryani, Chinese cuisine, Curry",4.3,30,1.384,True,1.287531,103.849186,,https://food-cms.grab.com/compressed_webp/merchants/4-C32KFE3EET3HAX/hero/a3101942d7914fc9ab0ac550792af4dd_1672109426943851523.webp,['mfcPromoTag']
4-CZN1FBMZSE2FTJ,Boat Quay Mix & Match,"Fried Chicken, Indian, Western, Chinese",4.1,25,1.488,False,1.2864533288302482,103.84961838187411,,https://food-cms.grab.com/compressed_webp/merchants/4-CZN1FBMZSE2FTJ/hero/ef1391ec556e4d6384431020780f433f_1599728453677278542.webp,
4-C6DATXDGJFXYC6,Harvest Seafood Restaurant - Boat Quay,"Zi Char, Seafood, Alcohol",,25,1.507,False,1.286379683428294,103.84966733002864,,https://food-cms.grab.com/compressed_webp/merchants/4-C6DATXDGJFXYC6/hero/691f3bfc90c84027beba41462edcc7b1_1706087760993511938.webp,
SGDD06424,Harry's - Boat Quay,"Western, Burgers, Alcohol",4,30,1.56,False,1.2860184,103.8499878,,https://food-cms.grab.com/compressed_webp/merchants/SGDD06424/hero/0d4d287e89a846448d8e373935beccf9_1636604809051309532.webp,
SGDD11354,Pasta Fresca Da Salvatore - Boat Quay,"Italian, Pizza",4.1,30,1.557,False,1.2860875148082518,103.8498811912407,,https://food-cms.grab.com/compressed_webp/merchants/SGDD11354/hero/45cc7d6897a9434994c837ecd1ca332c_1596611082893329589.webp,
4-C2TCWAECAGL3LT,George Town Tze Char And Craft Beer - Boat Quay,"Chinese, Local & Malaysian, Seafood",4.2,25,1.302,False,1.28843709,103.849151,,https://food-cms.grab.com/compressed_webp/merchants/4-C2TCWAECAGL3LT/hero/586282fc39d245e38c6002e920fa076e_1627455263622296301.webp,
4-C3TVJGAJSA3HN6,Ronin - Boat Quay,"Local & Malaysian, Snack, Drinks & Beverages",,25,1.46,False,1.286890684,103.8493059,,https://food-cms.grab.com/compressed_webp/merchants/4-C3TVJGAJSA3HN6/hero/6e091d3b75c94deb92d1cc2a45d0a49c_1665711348544321988.webp,
4-CZJVNT5XJ7V3TA,Curry Village - Authentic North Indian Cuisine,"Indian, Noodles, Drinks & Beverages, Seafood, Indonesian",3.6,119,1.501,True,1.286321663976937,103.84963428122043,500,https://food-cms.grab.com/compressed_webp/merchants/4-CZJVNT5XJ7V3TA/hero/0e938d82e51c440f8d011dac3c9074ce_1591601789869024080.webp,['mfcPromoTag']
4-C26KKB5KJRAKGX,Curry Village-Authentic North Indian Cuisine - Boat Quay,Indian,3.8,25,1.501,True,1.286321663976937,103.84963428122043,,https://food-cms.grab.com/compressed_webp/merchants/4-C26KKB5KJRAKGX/hero/3ff9b7207e034c46b97d7ea266935c12_1638948769565064249.webp,['mfcPromoTag']
4-CZD3LRMKDETDSE,Khushboo – The Fragrance of India - Boat Quay,"Indian, Seafood, Noodles, Vegetarian Friendly, Drinks & Beverages",3.7,30,1.502,True,1.2863083892823266,103.84963455627415,,https://food-cms.grab.com/compressed_webp/merchants/4-CZD3LRMKDETDSE/hero/614a9050347c454f8e02643371f55ad6_1591061813683996028.webp,['mfcPromoTag']
4-C22GRBMCGBBCCT,1826 - Boat Quay,Coffee & Tea,5,30,1.553,False,1.28608,103.84983,,https://food-cms.grab.com/compressed_webp/merchants/4-C22GRBMCGBBCCT/hero/68e61734c9304852988a8d247c139cc7_1631513078983969870.webp,
4-C4D3DEU1T3LYDA,Shahi Maharaja - Boat Quay,"Bakery & Cake, Breakfast & Brunch, BBQ & Grill, Bento, Drinks & Beverages",4.1,30,1.465,True,1.286840684,103.8493159,,https://food-cms.grab.com/compressed_webp/merchants/4-C4D3DEU1T3LYDA/hero/c15bc11ed2de4f7f838c9849e314dc69_1688378874210050441.webp,['mfcPromoTag']
4-C2JFWEUWEKLFAT,Mirch Masalah - Boat Quay,Indian,3.3,75,1.502,True,1.2863,103.84962,500,https://food-cms.grab.com/compressed_webp/merchants/4-C2JFWEUWEKLFAT/hero/000ec8415d774b71b9fa275bd7b9c75f_1622695172908530657.webp,['mfcPromoTag']
4-C2THEBB3LJCZWA,Dark Horse - Boat Quay,"Kids Friendly, Japanese, Drinks & Beverages, BBQ & Grill, Seafood",3,30,1.551,False,1.286037379,103.8498318,,https://food-cms.grab.com/compressed_webp/merchants/4-C2THEBB3LJCZWA/hero/f861ad59481a42639a98aa5587049085_1627266890255641905.webp,
4-C6AXGAXGGYL2CT,Anjana Kitchen - Six Battery Road,"Indian, Noodles, Breakfast & Brunch",3.6,30,1.546,False,1.285218,103.851769,,https://food-cms.grab.com/compressed_webp/merchants/4-C6AXGAXGGYL2CT/hero/0e878a7afea447dca06666f5044f9bc8_1702276165510033328.webp,
4-C6CHAK2DT6MGC6,Bombay Kitchen - North Indian And Mexican Cuisine - Boat Quay,"Indian, Mexican, Vegetarian Friendly, Alcohol",2,60,1.304,False,1.288347,103.849068,700,https://food-cms.grab.com/compressed_webp/merchants/4-C6CHAK2DT6MGC6/hero/09d704faca5e4428baf7e451c550e43b_1704786987520496689.webp,
4-C6BVG7DJMAWEC6,Mellow North Indian and Mexican Cuisine - Boat Quay,"Indian, Mexican, Bento",,85,1.304,False,1.288347,103.849068,700,https://food-cms.grab.com/compressed_webp/merchants/4-C6BVG7DJMAWEC6/hero/e7805afc785b49aaa428c96d659fc3ea_1704461925856356570.webp,
4-C6BVE33YVAUVAX,Mellow-Indian And Mexican Cuisine - Boat Quay,"Indian, Mexican, Bento",4,30,1.304,False,1.288347,103.849068,,https://food-cms.grab.com/compressed_webp/merchants/4-C6BVE33YVAUVAX/hero/4d8ac5dcf47f45deb0c6b8d9414017ee_1705737689822391587.webp,
4-C24XCFWXL7W3KA,Jidai - Circular Road,"Japanese, Ramen, Seafood",,25,1.352,False,1.28781967,103.849009,,https://food-cms.grab.com/compressed_webp/merchants/4-C24XCFWXL7W3KA/hero/e9c0e8ca43004b949434e8096b9a9e48_1636169130979490377.webp,
4-CZB1NJBJHCLCTX,Bistro Aseana - One Fullerton,"Indonesian, Snack, Bubble Tea",3.8,25,1.733,False,1.2865400333333332,103.85420394817982,,https://food-cms.grab.com/compressed_webp/merchants/4-CZB1NJBJHCLCTX/hero/62c2518b59554341a00036b54aea67a1_1588740444615143822.webp,
4-C6BFLPCKT3JBHE,Flame On - Circular Road,"BBQ & Grill, Local & Malaysian, Seafood",,25,1.277,False,1.2878138965013477,103.84898010088261,,https://food-cms.grab.com/compressed_webp/merchants/4-C6BFLPCKT3JBHE/hero/135d5c339bbe46d9bea73b76d7ecbdd6_1702975462000004959.webp,
4-C6LULYDAVEBKPA,Tai Shi Ke - Circular Road,"Chinese, Noodles, Drinks & Beverages, Bubble Tea",,25,1.325,False,1.2874022282329491,103.84894027301465,,https://food-cms.grab.com/compressed_webp/merchants/4-C6LULYDAVEBKPA/hero/2323248b71df496a80d3ac7b6abf4f52_1715221357752949531.webp,
4-C4CZA8LYCFNJGE,Delhi6 - Circular Road,"Indian, Vegetarian Friendly",3.7,25,1.493,False,1.286669,103.849182,,https://food-cms.grab.com/compressed_webp/merchants/4-C4CZA8LYCFNJGE/hero/a6b31b4912804bb2b5a427f8af704548_1685607971231600302.webp,
4-C2BBFFVFELBBA2,Szechwings - Circular Road,"Snack, Fried Chicken, Chinese, Zi Char",,25,1.31,False,1.287512682,103.8489149,,https://food-cms.grab.com/compressed_webp/merchants/4-C2BBFFVFELBBA2/hero/e01430cba6504159b75cd8357d34a420_1602139517953667499.webp,
4-C4LHRPLVENJDR2,Bon Bush - Circular Road,"Western, Steak, Pasta",,25,1.472,False,1.2865381840002,103.8492418,,https://food-cms.grab.com/compressed_webp/merchants/4-C4LHRPLVENJDR2/hero/b17edd7d-8a94-4b42-b566-98ca4f24e7e8__store_cover__2023__09__28__05__25__35.webp,
SGDD08719,PS.Cafe - One Fullerton,"Local & Malaysian, Pasta, Coffee & Tea",4,35,3.088,False,1.2862578,103.8541728,,https://food-cms.grab.com/compressed_webp/merchants/SGDD08719/hero/0706ef308ed84348aa4430fef92bf971_1594606205131036320.webp,
SGDD02161,Tom Yum Kung Fu - Boat Quay,"Thai, Salad, Dessert",4.2,25,1.313,False,1.2874854,103.8488753,,https://food-cms.grab.com/compressed_webp/merchants/SGDD02161/hero/upload-photo-Hero_Photo_c48845212b9e4743a6cbb28ff4dc563a_1555491758253676153.webp,
4-C2JFDFCBEA6EWA,MOS Burger - One Fullerton,"Fast Food, Burger, Snack",3.9,30,1.768,True,1.2864212,103.85430495,,https://food-cms.grab.com/compressed_webp/merchants/4-C2JFDFCBEA6EWA/hero/706edc52b36d4d9c94bd160facaaa067_1715696160065261635.webp,['zeusPromoShortTag']
4-CY4TANABMEEKEJ,Jangsu Korean Restaurant - Circular Road,"Noodles, Korean",4.3,30,1.263,False,1.287925,103.848828,,https://food-cms.grab.com/compressed_webp/merchants/4-CY4TANABMEEKEJ/hero/7696600434ff423fbe39a8f74b84eb17_1678421648701878477.webp,
SGDD00055,#Foodcoholic - 40 Circular Road,"Western, Pizza, Indian, Burgers",4.2,25,1.514,False,1.286412,103.849256,,https://food-cms.grab.com/compressed_webp/merchants/SGDD00055/hero/ca823185739e459884e309bb40d77058_1597730072316848174.webp,
4-C4MXEJ2KVA41GX,Quay House - Circular Road,"Thai, Local & Malaysian, Healthy",,25,1.565,False,1.285913,103.849635,,False,
4-CZJ1TPWEBAL2LJ,Los Amigos Taqueria - Circular Road,"Mexican, BBQ & Grill, Western",2.8,30,1.318,False,1.287441,103.84886172,,https://food-cms.grab.com/compressed_webp/merchants/4-CZJ1TPWEBAL2LJ/hero/c4dcf16e985c4a7181000af02821628f_1591845607829082451.webp,
4-C2XUWACYVTWXME,Wild Child Pizzette - Circular Road,Pizza,4.3,35,1.45,False,1.28594,103.84959,,https://food-cms.grab.com/compressed_webp/merchants/4-C2XUWACYVTWXME/hero/e50e7b24cad2413bb0cb64694f8b36b8_1637825956319379522.webp,
4-C2ADA2EACYTCNN,Dumpling Darlings - Circular Road ,"Noodles, Chinese, Local & Malaysian",4.6,30,1.314,False,1.287475,103.848825,,https://food-cms.grab.com/compressed_webp/merchants/4-C2ADA2EACYTCNN/hero/61a80f7fa6b94372a00e44f6f85c8360_1600334048752351492.webp,
4-CYT3VBLELT2UNX,Hermano By Sleeping Giants - Circular Road,"Western, Pizza",1,25,1.323,False,1.2873937472245722,103.84883201282128,,https://food-cms.grab.com/compressed_webp/merchants/4-CYT3VBLELT2UNX/hero/0bef27815d244c028fdbf94799f14bc3_1583212280034789553.webp,
SGDD08575,The Mask - Circular Road,"Mexican, Indian",3.6,30,1.372,False,1.2871178104873982,103.8488807260703,,https://food-cms.grab.com/compressed_webp/merchants/SGDD08575/hero/upload-photo-Hero_Photo_439b793a85f4418e98db18cbf0fa1c91_1556533767465099259.webp,
4-C6DANYWGAN2FGJ,KS Chicken - One Fullerton,"Fried Chicken, Korean, Drinks & Beverages",,40,3.065,True,1.285983,103.854083,,https://food-cms.grab.com/compressed_webp/merchants/4-C6DANYWGAN2FGJ/hero/386a7e3fae2e49fcbf68000ead7d9462_1706516903051335058.webp,"['zeusPromoShortTag', 'mfcPromoTag']"
4-C4BDWCCYJKAFVE,Drunk Skunk - Circular Road,"Western, Pizza, Snack, Indian, Pasta",,30,1.564,False,1.286898684,103.8489379,,https://food-cms.grab.com/compressed_webp/merchants/4-C4BDWCCYJKAFVE/hero/a9f81f0ed4294c7b9f621e3c191501fa_1682398855528858074.webp,
4-CZDJNNX1PCJ2LE,Yatagarasu - Circular Road,"Japanese, Fried Chicken, BBQ & Grill",4.8,25,1.545,False,1.286613,103.849058,,https://food-cms.grab.com/compressed_webp/merchants/4-CZDJNNX1PCJ2LE/hero/c5b8a5de2e6d436db5f347d6494490e2_1588385354924889298.webp,
4-C3UAC7DDMF3CG2,issho izakaya - One Fullerton,"Bento, Japanese, Drinks & Beverages, Sushi, Group Friendly",,30,3.052,False,1.28568017651884,103.853801880263,,https://food-cms.grab.com/compressed_webp/merchants/4-C3UAC7DDMF3CG2/hero/d8cfdbebfe7449f7876967bb19398020_1662017463700472650.webp,
4-CZE3JTC2KEA2T2,Hello Korean Bbq - Circular Road,"BBQ & Grill, Korean",4.4,30,1.471,False,1.286049632996523,103.8494082089253,,https://food-cms.grab.com/compressed_webp/merchants/4-CZE3JTC2KEA2T2/hero/28b47b4e378f40f5bf7cd05ea5524d29_1598349066630368604.webp,
SGDD00295,Aroy-Dee Thai Kitchen - Boat Quay,Thai,4.2,30,1.344,False,1.2871698,103.8488409,,https://food-cms.grab.com/compressed_webp/merchants/SGDD00295/hero/upload-photo-Hero_Photo_2322b3bb8bc740b1bfbc143fdcbfc953_1554864957331598449.webp,
4-CZDJNNXVEJ5WLA,The Hitsuji Club - Circular Road,"Bento, Japanese, BBQ & Grill",5,25,1.515,False,1.286372,103.84918,,https://food-cms.grab.com/compressed_webp/merchants/4-CZDJNNXVEJ5WLA/hero/47ffb8de0ce4490a881ac58c33a56396_1588046727033794851.webp,
4-C3XFR3WCA2CVRA,Kim's Singapore Bistro - Boat Quay Conservation Area,"Vegetarian Friendly, BBQ & Grill, Zi Char, Bubble Tea, Chinese",4.1,25,1.554,False,1.286676,103.849015,,https://food-cms.grab.com/compressed_webp/merchants/4-C3XFR3WCA2CVRA/hero/5849d180efb845948bf3766132abd89a_1684990881575268384.webp,
4-C4CJJAXARBXDV2,Bytes Station - Raffles MRT Station,"Western, Bakery & Cake, Breakfast, Drinks & Beverages",5,30,1.477,False,1.284961425,103.8511464,,https://food-cms.grab.com/compressed_webp/merchants/4-C4CJJAXARBXDV2/hero/c14039d6a6984e618c291adf06c8eb84_1685275914835819855.webp,
4-CZDBLNAFCYN2RT,National Kitchen by Violet Oon - National Gallery,"Bento, MICHELIN Plate, Local & Malaysian, Group Friendly",4.4,30,1.203,False,1.2910203,103.851952,,https://food-cms.grab.com/compressed_webp/merchants/4-CZDBLNAFCYN2RT/hero/9286d2ca8436402baf4cb5bbf1d5b28a_1587370270768381174.webp,
4-C4KWA3EANE42GE,Dzan's Corner - South Bridge Road,"Local & Malaysian, Noodles, Seafood, BBQ & Grill",,25,1.24,False,1.288056684,103.8486969,,False,
4-C2TZLXDJLTDXE6,Jao Thai Food - South Bridge Road,"Western, Thai, BBQ & Grill, Drinks & Beverages",4.7,30,1.24,False,1.288056684,103.8486969,,https://food-cms.grab.com/compressed_webp/merchants/4-C2TZLXDJLTDXE6/hero/38e0a9e4b4b9493eba3e8566b732872f_1663232394293334682.webp,
4-CYVKSA6YRATACN,Overeasy - 1 Fullerton Road,"Snack, Burgers, Western",3.8,35,3.088,False,1.286088468,103.8542518,,https://food-cms.grab.com/compressed_webp/merchants/4-CYVKSA6YRATACN/hero/ab780a52278441deaaa1e90aa1eea518_1600843502571241253.webp,
4-C2WVTE2WRN4WVT,The Penny Black Victorian London Pub - Boat Quay,"Alcohol, Snack, Western, Burger, Drinks & Beverages",4.5,30,1.407,False,1.28565556610716,103.849698171566,,https://food-cms.grab.com/compressed_webp/merchants/4-C2WVTE2WRN4WVT/hero/1b432edf0cbd4dcd8467acd58747d9db_1649151358427916165.webp,
4-CYMZRGBKR6BWEE,Village Nasi Lemak Bar - Circular Road,"Local & Malaysian, BBQ & Grill, Drinks & Beverages",4.3,25,1.478,False,1.2860617,103.8493161,,https://food-cms.grab.com/compressed_webp/merchants/4-CYMZRGBKR6BWEE/hero/7d40a359ef5140a299651c93784d6194_1563416588530039250.webp,
4-C6BDSCEYT4BZGX,Al-Zamas River Valley Pte. Ltd. - Circular Road,"Indian, BBQ & Grill, Drinks & Beverages",3.4,35,1.32,False,1.287420684,103.8487059,,https://food-cms.grab.com/compressed_webp/merchants/4-C6BDSCEYT4BZGX/hero/031dad1e33c14a8a9dd50064e7e27cb5_1702455287930535460.webp,
4-C4KBCYMTFBLVNE,Xin Yuan Ji Fish Soup 新源记 - One Raffles Place,"Chinese, Local & Malaysian, Seafood, Noodles, Snack",4.8,30,1.476,False,1.284906274,103.8510751,,https://food-cms.grab.com/compressed_webp/merchants/4-C4KBCYMTFBLVNE/hero/c8a28b6267c847a39b3274eda1841d71_1695200251701521309.webp,
4-C4EUGJ4GTREJEJ,Grains & Co. - One Raffles Place,"Healthy, Bento, Breakfast & Brunch, Salad",4.7,30,1.476,True,1.284906,103.851075,,https://food-cms.grab.com/compressed_webp/merchants/4-C4EUGJ4GTREJEJ/hero/1ea8ee178f654142ab01ff988c0f7100_1689140875499320748.webp,['mfcPromoTag']
4-C4NBG6U3LPVKKA,Shimmer Healthy Bowl By Popular Food - One Raffles Place,"Breakfast & Brunch, Healthy, Salad, Local & Malaysian",4.1,30,1.477,False,1.2849010722477345,103.85107578648984,,https://food-cms.grab.com/compressed_webp/merchants/4-C4NBG6U3LPVKKA/hero/c239b2a3380549059209588d96e9cd3d_1698207359480791200.webp,
4-C6JEVF2VCEJ1C2,Thesandwichguys - One Raffles Place,"Breakfast & Brunch, Healthy, Mexican",,30,1.476,False,1.2848923505426626,103.85107031195474,,https://food-cms.grab.com/compressed_webp/merchants/4-C6JEVF2VCEJ1C2/hero/eb8e9d4fe69849b98c1049ca1f3ef161_1710496521959632077.webp,
4-C6BYR8BBAYNCNA,Chuan Taizi Mala Tang - One Raffles Place,"Chinese, Mala, Drinks & Beverages",,35,1.477,False,1.284885174,103.8510882,,https://food-cms.grab.com/compressed_webp/merchants/4-C6BYR8BBAYNCNA/hero/72a4cc727d2c4687b77e54f4d0e6be06_1703660478417874246.webp,
4-C4MFVA5ALUTZAJ,KOI Thé - One Raffles,"Bubble Tea, Coffee & Tea, Drinks & Beverages",4.3,30,1.477,True,1.2848854786035275,103.85107653176118,,https://food-cms.grab.com/compressed_webp/merchants/4-C4MFVA5ALUTZAJ/hero/58fe9671cd9d4992843fdcc686d31d2d_1715590501611693306.webp,['zeusPromoShortTag']
SGDD06267,Macpherson BBQ Seafood - Leagoo Building,"Local & Malaysian, Chinese, Seafood, Noodles",4.4,30,1.236,False,1.2880400919204202,103.8486363,,https://food-cms.grab.com/compressed_webp/merchants/SGDD06267/hero/f1948ad0264a42a786d9ec3fc6d49168_1559557018414783410.webp,
4-C2UZJPN3LRJDLX,Dopa Dopa Creamery - South Bridge Road,"Dessert, Ice Cream, Mart",5,25,1.219,False,1.2878,103.848611,,https://food-cms.grab.com/compressed_webp/merchants/4-C2UZJPN3LRJDLX/hero/b263fb9f9eb94dce812318cc14ac6bcd_1623646406272966667.webp,
4-C2LYG2CGC4AYJA,Co Chung Restaurant - Lorong Telok,"Vietnamese, BBQ & Grill, Drinks & Beverages",4,30,1.391,False,1.28699182092609,103.848753310453,,https://food-cms.grab.com/compressed_webp/merchants/4-C2LYG2CGC4AYJA/hero/07379e5d2ad9479e851e1e860ab16781_1615559965934971561.webp,
4-CZDXJJMKNPBVWE,Tong Xin Ru Yi - Lorong Telok,"Chinese, Noodles",4.8,25,1.397,False,1.286922525,103.84877415,,https://food-cms.grab.com/compressed_webp/merchants/4-CZDXJJMKNPBVWE/hero/23bce959170e40ce86b556e38ca241a7_1588906837008569600.webp,
4-CZDUHEJHWATWJX,Freakin' Yummy Izakaya (FYI) - Circular Road,"Japanese, BBQ & Grill",4.6,25,1.477,False,1.286009,103.849236,,https://food-cms.grab.com/compressed_webp/merchants/4-CZDUHEJHWATWJX/hero/86b7240e315a44c096b9ffc3a7dec83e_1620272891724084471.webp,
4-C3EFE3E1RLEBDE,The Great Mischief - National Gallery Singapore,"Spanish, Coffee & Tea, Breakfast & Brunch, Pasta",3.7,25,1.214,False,1.291183,103.851917,,https://food-cms.grab.com/compressed_webp/merchants/4-C3EFE3E1RLEBDE/hero/cc65cb41a92c4ae38bf69fdc914bdda4_1648526497825173058.webp,
4-CYTKLXJFGRMVNA,Mr Bean - Raffles Place MRT Station,"Local & Malaysian, Breakfast & Brunch, Healthy",4.4,30,1.548,False,1.2846465,103.8514938,,https://food-cms.grab.com/compressed_webp/merchants/4-CYTKLXJFGRMVNA/hero/c97ffd2a77774255b921c7e0757c9106_1602235043382800963.webp,
4-C2DJCGCKVN63J6,Legendary Bak Kut Teh - South Bridge Road,"Local & Malaysian, Chinese, Noodles",4.3,30,1.209,False,1.287758,103.84844771,,https://food-cms.grab.com/compressed_webp/merchants/4-C2DJCGCKVN63J6/hero/abe6ba18fea440e897a41f27184c15be_1607502208797574101.webp,
4-C2THVYVKT6UKCA,The Grill Knife - Raffles Place MRT Station,"Kids Friendly, Halal, BBQ & Grill, Western",4.3,35,1.507,True,1.28463,103.85139,,https://food-cms.grab.com/compressed_webp/merchants/4-C2THVYVKT6UKCA/hero/4815c38b21504b55aca56a81c1cfd9d8_1620795649946870743.webp,['zeusPromoShortTag']
4-C2AGSB4CRKVHL2,Killiney Kopitiam - Lorong Telok,"Breakfast & Brunch, Drinks & Beverages, Coffee & Tea",4.4,30,1.432,False,1.2867425,103.8486574,,https://food-cms.grab.com/compressed_webp/merchants/4-C2AGSB4CRKVHL2/hero/87d2473194ea45f4bd75349d87fb4b09_1600682509668671223.webp,
4-C6EASFDJT6XTLT,MinXiaoMin - South Bridge Road,"Chinese, Vegetarian Friendly, Alcohol, Drinks & Beverages",,30,1.224,False,1.287350684,103.8484559,,https://food-cms.grab.com/compressed_webp/merchants/4-C6EASFDJT6XTLT/hero/bcc6df513a414f609b408c2e815ea038_1708309530480419932.webp,
4-C3NZSEWUCBVBAT,Gyo Gyo - Funan,"Japanese, Pasta, Seafood, Drinks & Beverages",4.6,30,0.504,False,1.29106578346931,103.85038604662,,https://food-cms.grab.com/compressed_webp/merchants/4-C3NZSEWUCBVBAT/hero/b7889433a7c544b9a1db44ed3594e207_1660534305798829825.webp,
4-C3CDSE4FCA6BE6,Boost Juice Bars - Funan,"Drinks & Beverages, Ice Cream, Dessert",4.7,25,0.5,False,1.29106578346931,103.85038604662,,https://food-cms.grab.com/compressed_webp/merchants/4-C3CDSE4FCA6BE6/hero/74ea2ae347e7406183e338f3c311a121_1701315227122410800.webp,
4-C2VKLAC2MBT2NJ,Stuff'd - Funan,"Healthy, Salad, Mexican, Halal, Group Friendly",4.3,25,0.5,False,1.29106578346931,103.85038604662,,https://food-cms.grab.com/compressed_webp/merchants/4-C2VKLAC2MBT2NJ/hero/43dfeeb6919a48d4a8db95a9a93a0ac0_1625204021157211612.webp,
4-C24JRFVTGA4GUA,Hototogisu Maze Soba - Funan,"Japanese, Ramen, Noodles",4.3,25,0.5,False,1.29106578346931,103.85038604662,,https://food-cms.grab.com/compressed_webp/merchants/4-C24JRFVTGA4GUA/hero/52f2017a9e2c45cb8a841d30115ae4bc_1689823733816377621.webp,
4-C2XJHGMET2T3EX,Don Jr - Funan,"Japanese, Snack",4.1,20,0.5,False,1.291066,103.850386,,https://food-cms.grab.com/compressed_webp/merchants/4-C2XJHGMET2T3EX/hero/04cf6cac5b6248f2aaef3233473bd4e4_1628839964996275911.webp,
4-C35YTYWFGB4JDA,Korean Cuisine - Funan Mall,Korean,1,20,0.501,False,1.2910662,103.85038604662,,https://food-cms.grab.com/compressed_webp/merchants/4-C35YTYWFGB4JDA/hero/66c91fa5d0824ce496e409bad191e85f_1677585665417903461.webp,
4-C35YTYWFCKLJTN,Big Grill - Best of Australian Steaks - Funan Mall,"Western, Local & Malaysian, BBQ & Grill",,20,0.501,False,1.2910662,103.85038604662,,https://food-cms.grab.com/compressed_webp/merchants/4-C35YTYWFCKLJTN/hero/714176e20ee149db962dc94896467cd2_1677585665211761798.webp,
4-C35YTYWFCETYJT,Mala Hotpot - Funan Mall,"Chinese, Local & Malaysian, Mala",,20,0.501,False,1.2910662,103.85038604662,,https://food-cms.grab.com/compressed_webp/merchants/4-C35YTYWFCETYJT/hero/e101db00634e4dee824b2761b9a3bcac_1677585665247601524.webp,
4-C35YTYWFCEAGNE,Claypot Delight - Funan Mall,"Local & Malaysian, Noodles",,20,0.5,False,1.2910662,103.85038604662,,https://food-cms.grab.com/compressed_webp/merchants/4-C35YTYWFCEAGNE/hero/58d5ab67e7024175b845b7e463c11b20_1677585665217506083.webp,
4-C35YTYWFAUUETT,Amanda Yong Tau Foo - Funan Mall,Local & Malaysian,,20,0.5,False,1.2910662,103.85038604662,,https://food-cms.grab.com/compressed_webp/merchants/4-C35YTYWFAUUETT/hero/624df2c47d614cefb5232bd821df44a6_1677585665188127812.webp,
4-C35YTYWFATCWBE,Penyet King - Funan Mall,Local & Malaysian,,20,0.5,False,1.2910662,103.85038604662,,https://food-cms.grab.com/compressed_webp/merchants/4-C35YTYWFATCWBE/hero/eae923c2deec476ab65b4455df991833_1677585665197015409.webp,
4-C35YTYWFA6NAAJ,Fish Soup Ban Mian - Funan Mall,"Local & Malaysian, Seafood, Noodles",,20,0.501,False,1.2910662,103.85038604662,,https://food-cms.grab.com/compressed_webp/merchants/4-C35YTYWFA6NAAJ/hero/1fdac1686e784737a13e47b85c08eece_1677585665218446026.webp,
4-C35YTYWFA62FTA,Tong Luck Mixed Veg Rice - Funan Mall,"Local & Malaysian, Chinese, Hawker",,20,0.5,False,1.2910662,103.85038604662,,https://food-cms.grab.com/compressed_webp/merchants/4-C35YTYWFA62FTA/hero/62672e7e7823444583b7aac2e39e13a1_1677585665192245189.webp,
4-C35YTYWFA4NWSE,Yuan Wei Mini Wok - Funan Mall,"Local & Malaysian, Noodles, Zi Char",,20,0.501,False,1.2910662,103.85038604662,,https://food-cms.grab.com/compressed_webp/merchants/4-C35YTYWFA4NWSE/hero/1665710cc9114ba19552723a7005a87e_1677585665241717036.webp,
4-C35YTYWEV2LFJ6,Flavors of Japan - Funan Mall,"Japanese, Ramen",,20,0.501,False,1.2910662,103.85038604662,,https://food-cms.grab.com/compressed_webp/merchants/4-C35YTYWEV2LFJ6/hero/96f42d4e6b024a54864e321eb3a3916c_1677585665093895454.webp,
4-C35YTYWEV2EBRE,Dim Sum - Funan Mall,"Dim Sum, Local & Malaysian",,20,0.5,False,1.2910662,103.85038604662,,https://food-cms.grab.com/compressed_webp/merchants/4-C35YTYWEV2EBRE/hero/57b60e81819c4794a268db6b1e590755_1677585665082414617.webp,
4-C4NBJNMVAYXZME,Wingstop - Funan,"Fast Food, Fried Chicken, Western, Halal",4,30,0.504,True,1.2910662,103.85038604661986,,https://food-cms.grab.com/compressed_webp/merchants/4-C4NBJNMVAYXZME/hero/075a63a4634d4a40aabb5d5db0eff6d7_1698227336785199080.webp,"['zeusPromoShortTag', 'mfcPromoTag']"
4-C4DGKA4GN4CDE2,Xi Men Jie - Funan,"Chinese, Healthy, Drinks & Beverages",4.6,25,0.501,False,1.2910662,103.85038604661986,,https://food-cms.grab.com/compressed_webp/merchants/4-C4DGKA4GN4CDE2/hero/33a056d615c04e2694f65862e2aabeef_1686715477563979868.webp,
SGDD01392,Bee Kee Truffle Wanton Noodle - CapitaSpring,"Chinese, Noodles, Drinks & Beverages",4.2,35,1.47,False,1.2848815243836065,103.85026225030562,,https://food-cms.grab.com/compressed_webp/merchants/SGDD01392/hero/21b36c4eca624821b6aa2610f56ad4bf_1557975851087114497.webp,
SGDD12541,PENG 鹏 Tiong Bahru Wanton Mee - CapitaSpring,"Chinese, Local & Malaysian, Noodles",4.6,30,1.471,False,1.2848757010405207,103.85026684726591,,https://food-cms.grab.com/compressed_webp/merchants/SGDD12541/hero/f99f8173067c4de28263cae040358031_1562900512270091831.webp,
SGDD01360,Authentic Hock Lam Beef Noodles - 13 North Canal Road,"Chinese, Noodles",4.6,30,1.543,False,1.286303654,103.8487599,,https://food-cms.grab.com/compressed_webp/merchants/SGDD01360/hero/upload-photo-Hero_Photo_2a6eb535c65643bab307a4cb3ef892cf_1554873082830030787.webp,
4-CZJZBADJCXA2NN,Potato Corner - Funan,"Local & Malaysian, Fast Food, Snack",4.4,25,0.515,False,1.291142,103.850453,,https://food-cms.grab.com/compressed_webp/merchants/4-CZJZBADJCXA2NN/hero/766c8c6592804738931b64e18f799058_1649250388867135963.webp,
4-C4MYGELXJZLWJJ,Cellarbration Bistro & Bottle Shop - Lorong Telok,"Alcohol, Mart, Drinks & Beverages",1,25,1.423,False,1.286860584,103.8485018,,https://food-cms.grab.com/compressed_webp/merchants/4-C4MYGELXJZLWJJ/hero/5fe69a2d418a421c8a7208febdfe8566_1697622476149593074.webp,
4-C2EAC3VJEBUWL2,Yakizen - Boat Quay Conservation Area,"Japanese, BBQ & Grill, Salad, Zi Char, Sushi",3.3,30,1.419,False,1.286563,103.84861451118246,,https://food-cms.grab.com/compressed_webp/merchants/4-C2EAC3VJEBUWL2/hero/5ec2d1592a54496b85eb3bf9e4fef19b_1615954567790319964.webp,
4-C3VWVT6ETNUVLT,Dondonburi - Lorong Telok,"Japanese, Noodles, Drinks & Beverages",,25,1.444,False,1.286563,103.848614511182,,https://food-cms.grab.com/compressed_webp/merchants/4-C3VWVT6ETNUVLT/hero/f8b60ef69e7f404e8795f7bfe459c306_1680153155580503810.webp,
4-C22KT6VFVYJHC6,Beng Thin Hoon Kee - OCBC Centre,"Chinese, Dessert, Drinks & Beverages",4.2,30,1.373,False,1.28546774398166,103.849360399838,,https://food-cms.grab.com/compressed_webp/merchants/4-C22KT6VFVYJHC6/hero/17041e6569454ee08346465729b299c8_1634696875645691342.webp,
4-C6CCKELHFGA2AA,Hisingapore - High Street Centre,"Mart, Healthy, Snacks",,20,0.925,False,1.2902970491,103.8492212,,https://food-cms.grab.com/compressed_webp/merchants/4-C6CCKELHFGA2AA/hero/995dbb53e6fe473ea20821b437fa3066_1704274890088000673.webp,
4-C3VJR76KJXXADA,The Good Boys - High Street Plaza,"Drinks & Beverages, Healthy",4,25,0.924,False,1.2903829531375,103.849297971757,,https://food-cms.grab.com/compressed_webp/merchants/4-C3VJR76KJXXADA/hero/05e87b1d1bfc424591f4ecd257be8c98_1664936270961766800.webp,
4-C3UBCEDHTT6FCN,Flo Dining - High Street Plaza,"Japanese, Chicken, Vegetarian Friendly",3,25,0.899,False,1.2903829531375,103.849297971757,,https://food-cms.grab.com/compressed_webp/merchants/4-C3UBCEDHTT6FCN/hero/f98b6d9f33f14cadaa685be98fb7684c_1670836813811506268.webp,
SGDD08664,Ricciotti - The Riverwalk,"Pasta, Pizza, Italian",3.4,30,1.206,False,1.2892158391798627,103.84854476261046,,https://food-cms.grab.com/compressed_webp/merchants/SGDD08664/hero/ricciotti.webp,
4-CYW1LZNWMCNJVA,Sinpopo Coffee - Funan ,"Bakery & Cake, Local & Malaysian",4.4,25,0.514,False,1.2911644191593723,103.85045305820518,,https://food-cms.grab.com/compressed_webp/merchants/4-CYW1LZNWMCNJVA/hero/06d727d3fb784362a9d22a0778aaa060_1596079937413780538.webp,
4-C3JDL6TGDF3WNN,Ramanico Delights - High Street Plaza,Chinese,2,20,0.918,False,1.29045,103.849358,,https://food-cms.grab.com/compressed_webp/merchants/4-C3JDL6TGDF3WNN/hero/bce70587d1f44447905ae9e75631af17_1650357206323164200.webp,
4-CYXBCJDGNGE3EJ,Sushi Express - Funan,"Dessert, Sushi, Japanese, Group Friendly",4.3,30,0.505,False,1.2911182921637732,103.8503335760318,,https://food-cms.grab.com/compressed_webp/merchants/4-CYXBCJDGNGE3EJ/hero/fd52c776-17ad-484c-a7a4-c1f4c12b8b7a__store_cover__2024__03__28__10__01__20.webp,
4-CZCUCRKVCAMYVA,Souperstar - One Raffles Place,Salad,4.8,35,1.511,False,1.284500731659856,103.8512442,,https://food-cms.grab.com/compressed_webp/merchants/4-CZCUCRKVCAMYVA/hero/bb64248d14cd4abf8f83f2a10ad90019_1585557891727726140.webp,
4-C6BAGXDYGJDBET,Tummy Delights - Raffles Place,"Chinese, Western, BBQ & Grill",,35,1.737,False,1.2845023037530439,103.85242058534266,,https://food-cms.grab.com/compressed_webp/merchants/4-C6BAGXDYGJDBET/hero/ce01dbad744446a48d037ac063160fb5_1702291401416278545.webp,
4-C6EYGAVWLNBENN,Whiskdom Cookies & Brownies - Raffles Place,"Bakery & Cake, Dessert, Coffee & Tea",5,30,1.512,False,1.2844912975567617,103.85108222166481,,https://food-cms.grab.com/compressed_webp/merchants/4-C6EYGAVWLNBENN/hero/c52ee8e4e1d84757b54cd96755c7205a_1709610208800090503.webp,
4-C4MDVPMAFCDKCJ,SF Fruit & Juices - One Raffles Place,"Healthy, Drinks & Beverages, Fresh Produce",4.7,30,1.512,False,1.2844786715919128,103.85108127550596,,https://food-cms.grab.com/compressed_webp/merchants/4-C4MDVPMAFCDKCJ/hero/5a565234da3844c5b719b85a6161da03_1696403089866970119.webp,
4-CYLJWGMVVLNVTE,Peach Garden - OCBC Centre,"Chinese, Dim Sum, Seafood",4.1,25,1.402,False,1.2854056,103.8493107,,https://food-cms.grab.com/compressed_webp/merchants/4-CYLJWGMVVLNVTE/hero/fe198f684c114e5f8f11ce5fe407da15_1610423076413063106.webp,
SGDD01271,Vinothek Leopold - Lorong Telok,"Alcohol, Beverages, Western, Mart, Vegan",4.1,25,1.491,False,1.286597664830608,103.84850110808395,,https://food-cms.grab.com/compressed_webp/merchants/SGDD01271/hero/40cceb0e63b94de88a46a5fb83eab4b6_1586782773663855658.webp,
4-CZCFEKMTA6TXRE,Bombay Grill (Restaurant Delivery),Indian,3.5,66,1.197,True,1.287599,103.848244,500,https://food-cms.grab.com/compressed_webp/merchants/4-CZCFEKMTA6TXRE/hero/5001ef6dfecc461cb6f93121efb1447f_1630460697736110984.webp,['mfcPromoTag']
4-CYLJWGEJRP3TJA,Two Wings - North Bridge Road,"Western, Fried Chicken, Drinks & Beverages",4.7,20,0.512,False,1.2912102,103.8503448,,https://food-cms.grab.com/compressed_webp/merchants/4-CYLJWGEJRP3TJA/hero/upload-photo-Hero_Photo_ea428f059dd34da0a0a7d6d67b2cd0c6_1556012404270574503.webp,
SGDD00979,Ramen Matsuri - 7 North Canal Road,"Japanese, Ramen, Noodles",4.6,30,1.324,False,1.285855,103.848906,,https://d1sag4ddilekf6.cloudfront.net/compressed/merchants/SGDD00979/hero/75r-24bits-100kb-475fb81c6ca45cf095365430bbc7a05195c2119ad85accb05856159aae5ae210-f13944e7fea54cab84c6bd290297db5d_1563782530895019443.jpeg,
4-C6JYG6XUN2MXKA,Kwaasong Bakeshop - Lorong Telok,"Bakery & Cake, Snack, Dessert",5,30,1.421,False,1.286732384,103.8484351,,https://food-cms.grab.com/compressed_webp/merchants/4-C6JYG6XUN2MXKA/hero/23752b6f58c148729f7f37ea52d60641_1711614113552660111.webp,
4-C6EFRUMTJU2JBA,Dapur Penyet - North Bridge Road,"Indonesian, Halal, Seafood",4.2,30,0.505,False,1.291133004612527,103.85015362774963,,https://food-cms.grab.com/compressed_webp/merchants/4-C6EFRUMTJU2JBA/hero/7c4b1a523e424ed4bcb349da2a02dd3d_1708591944632562022.webp,
4-CYUTT6CDJ4ETNT,LeNu Noodle Bar - Funan,"Chinese, Noodles, Ramen",4.6,30,0.506,True,1.2911368749958942,103.85015140082928,,https://food-cms.grab.com/compressed_webp/merchants/4-CYUTT6CDJ4ETNT/hero/d50192c9001b4588bf39f781573e539a_1577414852664700671.webp,"['zeusPromoShortTag', 'mfcPromoTag']"
4-CZD1V32GJVEUCE,Ange Bakes Keto Bakery & Cafe - High Street Plaza,"Mart, Bakery, Dessert, Local, Snacks",4.7,20,0.962,True,1.2905236735827206,103.84928283660275,,https://food-cms.grab.com/compressed_webp/merchants/4-CZD1V32GJVEUCE/hero/cfbef3c82ef5453baec1e8918a964002_1591842854837883418.webp,"['zeusPromoShortTag', 'mfcPromoTag']"
4-C2MUN4CTR2VXWE,O2 Bistro - Boat Quay Conservation Area,"Dessert, Chinese, Western",3.8,25,1.497,False,1.28608714070694,103.84871258957,,https://food-cms.grab.com/compressed_webp/merchants/4-C2MUN4CTR2VXWE/hero/21f3f4d99f9e45a99084615a2ea63fb8_1631674285903762105.webp,
4-CYWKAUBUPEDVJX,Qi Ji - Funan Mall,"Chinese, Halal, Local & Malaysian, Group Friendly",4.6,30,0.512,False,1.291225,103.85029,,https://food-cms.grab.com/compressed_webp/merchants/4-CYWKAUBUPEDVJX/hero/98dd12f8f13447318417005e03285097_1568965204870694985.webp,
4-C3NCCTNHRCDTRE,Naga House - Lorong Telok,"Coffee & Tea, Drinks & Beverages, Japanese Cuisine",5,25,1.417,False,1.286688,103.848414,,https://food-cms.grab.com/compressed_webp/merchants/4-C3NCCTNHRCDTRE/hero/5177b2f64ef646ac89539ee79417095a_1658550707300992482.webp,
4-C6KYCRAKE262EE,Deadfall Mexiporean Hawkeria - North Canal Road,"Mexican, Fusion",,25,1.467,True,1.2862749277280585,103.84859636054836,,https://food-cms.grab.com/compressed_webp/merchants/4-C6KYCRAKE262EE/hero/617c0e8e504542b6b9e8684060b8069c_1714626511281394204.webp,['mfcPromoTag']
4-C6KVLUDEMFWUL2,Deadfall Cafe - North Canal Road,"Breakfast & Brunch, Cafe",5,30,1.44,False,1.2862749277280585,103.84859636054836,,https://food-cms.grab.com/compressed_webp/merchants/4-C6KVLUDEMFWUL2/hero/cd917ef3a3384c069c48ac5735ea7810_1714626442423139174.webp,
4-C3E3EFD3G3VCTN,Kazo Premium - Funan,"Bakery & Cake, Dessert, Cakes & Bakeries, Halal",4.9,20,0.521,True,1.29128860338776,103.850389532962,,https://food-cms.grab.com/compressed_webp/merchants/4-C3E3EFD3G3VCTN/hero/6486ec30-0187-4def-89f4-bcd8085c6705__store_cover__2024__02__15__02__04__50.webp,['zeusPromoShortTag']
4-C2TBC6CDV6UACE,Smooy - Funan,"Dessert, Ice Cream",4.4,25,0.522,False,1.29128860338776,103.850389532962,,https://food-cms.grab.com/compressed_webp/merchants/4-C2TBC6CDV6UACE/hero/be9fb410016c46749fd50c02bc869c57_1620118919518792491.webp,
4-C6E2RBDBNA5GNA,Now Pizza - Funan,"Italian, Pizza, Drinks & Beverages, Dessert",3.7,25,0.522,False,1.29128862,103.8503895,,https://food-cms.grab.com/compressed_webp/merchants/4-C6E2RBDBNA5GNA/hero/684dcd75-8e1e-41f4-914d-edceb0c621c5__store_cover__2024__03__15__02__38__38.webp,
4-CZC2A2DDGZNYBA,Men Men Don - Funan Mall,"Japanese, Noodles, Bento",4.4,30,0.521,False,1.291289,103.85039,,https://food-cms.grab.com/compressed_webp/merchants/4-CZC2A2DDGZNYBA/hero/68d3919a6f1c4a8c95302ff16e566083_1585806066968176337.webp,
4-C3XTAN6WCCLJKA,Sukiya - Funan,"Japanese, Kids Friendly, Drinks & Beverages, Seafood, Halal",4.3,30,0.525,False,1.291289,103.85039,,https://food-cms.grab.com/compressed_webp/merchants/4-C3XTAN6WCCLJKA/hero/7bf758f97e3d4545adce0d2c95b344ac_1669005010942650029.webp,
4-C6AFLYKZANBBLN,Sing Swee Kee Chicken Rice X Raffles Coffee - North Bridge Road,"Local & Malaysian, Coffee & Tea, Drinks & Beverages",3.3,30,0.521,True,1.2912891,103.85038953296225,,https://food-cms.grab.com/compressed_webp/merchants/4-C6AFLYKZANBBLN/hero/bf0f1c24-468d-48c5-bd62-f99d56ebc107__store_cover__2023__12__04__09__48__47.webp,['mfcPromoTag']
4-C4MZEJ51G64XGN,Beyond Fruit - Funan,"Drinks & Beverages, Dessert, Healthy",5,25,0.522,False,1.2912891,103.85038953296225,,https://food-cms.grab.com/compressed_webp/merchants/4-C4MZEJ51G64XGN/hero/5f8e7f5a-5f5c-419d-9be4-0da2dd965617__store_cover__2024__03__31__15__39__55.webp,
4-C36HR8CFJCLHJE,Hill Street - Mix & Match Malls (Mart),"Convenience, Bakery & Pastries, Mart",,25,0.522,False,1.2912891,103.85038953296225,,https://food-cms.grab.com/compressed_webp/merchants/4-C36HR8CFJCLHJE/hero/6efa5c86a0b4464b8a4de885695e4b0c_1679382683942442337.webp,
4-C4CKR4AUCFLKAT,Wayang - Funan,"Indonesian, Seafood, Drinks & Beverages",4.7,30,0.522,False,1.2912892,103.850388,,https://food-cms.grab.com/compressed_webp/merchants/4-C4CKR4AUCFLKAT/hero/771bfe61-1222-4755-87ea-4c7d0621bf52__store_cover__2023__06__21__08__44__56.webp,
4-CY23VKEUCUA1CA,Delibowl - Funan 壹碗福南数码广场,"Local & Malaysian, Chinese, Zi Char, Halal",4.4,25,0.519,False,1.2912791,103.8503589,,https://food-cms.grab.com/compressed_webp/merchants/4-CY23VKEUCUA1CA/hero/a788d4bba220437e841b9466f0d88559_1574309279562344056.webp,
4-CYU2V2KFCGLXTJ,Yan Ji Gourmet Seafood Soup - Funan,"Chinese, Seafood",4.4,30,0.521,False,1.29131,103.850432,,https://food-cms.grab.com/compressed_webp/merchants/4-CYU2V2KFCGLXTJ/hero/a6f4825e98664d85ba95a54fc252c1f7_1648111050168235141.webp,
4-CZDKG25AVYVAT6,Subway - Funan,"Sandwiches, Halal, Fast Food, Group Friendly",4.4,30,0.521,True,1.2912632999963665,103.8503193,,https://food-cms.grab.com/compressed_webp/merchants/4-CZDKG25AVYVAT6/hero/b10a055c8d34488c9f269b43acc2698f_1587301211059935196.webp,"['zeusPromoShortTag', 'mfcPromoTag']"
4-C25UGT5GNVA2WA,53 Galaxy Space - South Bridge Road,"Western, Breakfast & Brunch, Pasta, Salad",,25,1.214,False,1.287350684,103.8482109,,https://food-cms.grab.com/compressed_webp/merchants/4-C25UGT5GNVA2WA/hero/93c463e17b72461ea7d974466f57a7b8_1654236407081110608.webp,
4-C2WGSGMCCNXUGT,Bombay House - South Bridge Road,Indian,3.5,92,1.181,True,1.28763,103.84817,500,https://food-cms.grab.com/compressed_webp/merchants/4-C2WGSGMCCNXUGT/hero/0e48055305674296b8cba980196524f4_1681539338161441227.webp,['mfcPromoTag']
4-C3LGL3LDWAJHJT,Aryana - North Indian Restaurant - South Bridge Road,"Indian, Vegetarian Friendly",3.4,119,1.182,True,1.287651,103.848166,500,https://food-cms.grab.com/compressed_webp/merchants/4-C3LGL3LDWAJHJT/hero/2d42e49726f94cddbf50b9f0bd29e251_1678022926384196221.webp,['mfcPromoTag']
4-C3LGL26GR23AMA,Bombay Curry And Kebabs North Indian Cuisine - South Bridge Road,"BBQ & Grill, Seafood, Bento, Indian",3.8,99,1.182,True,1.287651,103.848166,500,https://food-cms.grab.com/compressed_webp/merchants/4-C3LGL26GR23AMA/hero/6682207da78b4a8ab0efb3ccf684d24e_1706529072240800528.webp,['mfcPromoTag']
4-C253CYCTETA2ME,Hot Express North Indian Cuisine - South Bridge Road,"Indian, BBQ & Grill, Seafood",3.3,118,1.182,True,1.287651,103.848166,500,https://food-cms.grab.com/compressed_webp/merchants/4-C253CYCTETA2ME/hero/ceb1f099cf97489bb85ba3bb395c3b4c_1706528941529286129.webp,['mfcPromoTag']
4-C252FED2JKLKV6,Bawarchi North Indian Cuisine - South Bridge Road,Indian,3.5,117,1.182,True,1.287651,103.848166,500,https://food-cms.grab.com/compressed_webp/merchants/4-C252FED2JKLKV6/hero/4f3b6e7f4ccf4f2db0512dd002d03998_1694151133920119369.webp,['mfcPromoTag']
4-CYN1J3LDNLKDJA,The Taste of Bharath - High Street Plaza,"Indian, Local & Malaysian",3.9,25,0.483,False,1.2906387834337985,103.84934126098733,,https://d1sag4ddilekf6.cloudfront.net/compressed/merchants/4-CYN1J3LDNLKDJA/hero/75r-24bits-100kb-d099d52307d903b9286c3d7e537cb8a51566c483f9aa2f0d83a0af5dda621582-af4734c72e9a497382715b50b57c328d_1564033147753612778.jpeg,
4-C2E2V3VCFF4GCX,Churros Republic - Funan Mall,"Dessert, Snack, Bakery & Pastries, Spanish, Drinks & Beverages",4.6,30,0.516,False,1.29127554,103.8503161,,https://food-cms.grab.com/compressed_webp/merchants/4-C2E2V3VCFF4GCX/hero/514d9998-aec8-45a0-bb27-8af95f4f766b__store_cover__2023__10__18__06__47__36.webp,
4-CZBXVFVUJF3GVX,Gong Yuan Ma La Tang - Funan,"Local & Malaysian, Chinese, Mala",4,30,0.523,True,1.291332011,103.8504507,,https://food-cms.grab.com/compressed_webp/merchants/4-CZBXVFVUJF3GVX/hero/ce46b1eecd1f403c866e2ff5767e0daf_1587806595881405114.webp,['zeusPromoShortTag']
4-CZDVUF2VLKKFV2,A Gan Guo Kui - North Bridge Road,"Snack, Bakery, Chinese",4.4,25,0.514,False,1.2912506453488373,103.85026020000001,,https://food-cms.grab.com/compressed_webp/merchants/4-CZDVUF2VLKKFV2/hero/73914813c4544518a8d0614b9aa884fb_1587617704509762156.webp,
4-CYVFL2CDN2UEJ2,Old Chang Kee - Funan,"Snack, Local & Malaysian, Halal, Group Friendly",4.7,25,0.514,False,1.291265,103.850287,,https://food-cms.grab.com/compressed_webp/merchants/4-CYVFL2CDN2UEJ2/hero/674b9d8fcca24766b247a31a5c90b953_1565669664238342611.webp,
4-C2JFEXCJA74GEE,House of Seafood (MediterrAsian BBQ Bar) - The Riverwalk,"Local & Malaysian, Chinese, Seafood",3.9,35,1.216,False,1.289138384359382,103.84834622363098,,https://food-cms.grab.com/compressed_webp/merchants/4-C2JFEXCJA74GEE/hero/21b3fa7a-dc41-4da3-82d2-8b8b42b4d98c__store_cover__2023__08__30__14__50__38.webp,
4-C25ZKECUCZD3AN,Twyst Pasta - Raffles Place MRT Station,"Noodles, Fast Food, Italian, Bakery & Cake, Halal",4.6,35,1.551,True,1.284325,103.851472,,https://food-cms.grab.com/compressed_webp/merchants/4-C25ZKECUCZD3AN/hero/bdd7d200991249388572cc2878f133bd_1658974754474364551.webp,"['zeusPromoShortTag', 'omegaPromoTag']"
4-CZDHLA3KV4J3DA,Godmama Modern Peranakan Kitchen - Funan Mall,"Local & Malaysian, Pasta, Dessert, Seafood",3.9,30,0.514,False,1.2912,103.850133,,https://food-cms.grab.com/compressed_webp/merchants/4-CZDHLA3KV4J3DA/hero/44892187094b42d2b6b38693e31e8fe6_1591089016450622657.webp,
4-CZLGCZDUNFMVPA,Old Tea Hut - One Raffles Place,"Drinks & Beverages, Coffee & Tea, Bubble Tea",4.7,25,1.526,False,1.2843468846153845,103.8512387,,https://food-cms.grab.com/compressed_webp/merchants/4-CZLGCZDUNFMVPA/hero/2b77ec0f139141c8b0e7ebbfe148533c_1596421651754399069.webp,
4-CYWCATD3GAWTRN,Saap Saap Thai - Funan,"Thai, Noodles, Halal",4.4,30,0.512,False,1.2912451670268035,103.85020825460789,,https://food-cms.grab.com/compressed_webp/merchants/4-CYWCATD3GAWTRN/hero/166c5f439d6644799e151c6b9428c27b_1622858179850687444.webp,
4-CZJVJ6KABAXJET,NOKA - Funan,"Alcohol, Dessert, Drinks & Beverages, Sushi",4.5,25,0.863,False,1.2912877666666667,103.850257,,https://food-cms.grab.com/compressed_webp/merchants/4-CZJVJ6KABAXJET/hero/56d017cadcb340528352cda4f768a01c_1591943439792752103.webp,
4-C6C3WB2WRKKALJ,Acai King - North Bridge Road,"Dessert, Drinks & Beverages",1,25,0.868,False,1.2912637400278537,103.85019356235931,,https://food-cms.grab.com/compressed_webp/merchants/4-C6C3WB2WRKKALJ/hero/15d875bcb8b54b4e8888ad921c226723_1709694603310150720.webp,
4-C4C3MA42ENXZCA,Swirled - Capitaspring,"Western, Pasta, Seafood, Snack, Local & Malaysian",4.3,30,1.497,False,1.284640015,103.8501916,,https://food-cms.grab.com/compressed_webp/merchants/4-C4C3MA42ENXZCA/hero/0cbec78e-29e2-49da-a083-645a26ae7dfb__store_cover__2023__06__10__16__23__06.webp,
4-C3LGR6M3C8EXCE,Patrons’ Box - One Raffles Place,"Western, Middle Eastern, Dessert",4.4,25,1.582,False,1.284301899,103.8513482,,https://food-cms.grab.com/compressed_webp/merchants/4-C3LGR6M3C8EXCE/hero/b8473dedbf5a40bf972cc82823ee219f_1657167638194680986.webp,
4-C34WEEW1ECKAC6,Cedele - CIMB Plaza,"Western, Bakery & Cake, Breakfast & Brunch",4.2,25,1.809,True,1.284289213,103.8521153,,https://food-cms.grab.com/compressed_webp/merchants/4-C34WEEW1ECKAC6/hero/4509ca6cf8cb442a8f76007d5403b999_1675386559467804343.webp,"['zeusPromoShortTag', 'mfcPromoTag']"
4-C2T3CY2YWAVGNE,Tanamera Coffee - Oxley @ Raffles,"Indonesian, Breakfast & Brunch, Fried Rice, Satay, Soup",4,119,1.739,False,1.284290467,103.852133,1500,https://food-cms.grab.com/compressed_webp/merchants/4-C2T3CY2YWAVGNE/hero/0d34205a50254b6192b5b9836b76f4e4_1676628307279990382.webp,
4-CY3UVAXARRBACN,The Oyster Bank - Funan,"Japanese, Seafood, Sushi",3.7,30,0.861,False,1.2913241,103.8502878,,https://food-cms.grab.com/compressed_webp/merchants/4-CY3UVAXARRBACN/hero/eb5bec3f388d4fa38c788b713f2c31cf_1574675608488488087.webp,
4-C34WEEW1DCLVPA,Cedele Mart - CIMB Plaza,"Bakery & Cake, Groceries, Healthy Food, Snack, Gourmet",5,25,1.739,True,1.284279975,103.8521402,,https://food-cms.grab.com/compressed_webp/merchants/4-C34WEEW1DCLVPA/hero/1fc930fe703646d2a1957f5a6f08b56e_1675399515065771592.webp,['zeusPromoShortTag']
4-C22ENXV2JAAJPA,Golden Village Goldbites - Funan,"Western, Fast Food, Drinks & Beverages",3.7,30,0.52,False,1.2911848,103.8499972,,https://food-cms.grab.com/compressed_webp/merchants/4-C22ENXV2JAAJPA/hero/18b4ba2a51264912aecd832e2202420a_1631262661232118769.webp,
4-CZBXTF4YA8DXGT,Ya Kun Kaya Toast - Funan Mall,"Coffee & Tea, Bakery & Cake, Dessert, Group Friendly",4.2,35,0.869,False,1.2914203,103.8505049,,https://food-cms.grab.com/compressed_webp/merchants/4-CZBXTF4YA8DXGT/hero/ed09fbc233e14326972bf3fff6a3292c_1585745933465231893.webp,
4-CYU3N7KCECKGNX,Dunkin' Donuts - Funan Mall,"Western, Group Friendly, Bakery & Cake, Drinks & Beverages, Halal",4.6,25,0.859,False,1.2914274,103.85052218,,https://food-cms.grab.com/compressed_webp/merchants/4-CYU3N7KCECKGNX/hero/3b0b21061009447c842d1e2732c0d2eb_1700120995574966320.webp,
4-C2LXSBCJTJNGLN,The Coffee Bean & Tea Leaf - CIMB Plaza,"Breakfast & Brunch, Coffee & Tea, Dessert, Halal",4.5,30,1.748,False,1.284258,103.85193,,https://food-cms.grab.com/compressed_webp/merchants/4-C2LXSBCJTJNGLN/hero/3d6d9a2a9d4242ffbb25e233a58e8838_1648777871387250945.webp,
4-CZCBCGNXAY5ACA,LiHO TEA - Funan,"Coffee & Tea, Drinks & Beverages, Bubble Tea, Group Friendly",4.5,25,0.866,True,1.2913261,103.85024359285714,,https://food-cms.grab.com/compressed_webp/merchants/4-CZCBCGNXAY5ACA/hero/39e32f0d1e7d462a93d916ac2e1b3862_1713173221414446151.webp,['zeusPromoShortTag']
4-C2LAR3XHVP4EME,Lucky69 Beer Cafe - North Canal Road,"Snack, Alcohol, Western",5,30,1.462,False,1.2864379,103.8483985,,https://food-cms.grab.com/compressed_webp/merchants/4-C2LAR3XHVP4EME/hero/b593bdd9185440388a4aad0dac2777b4_1632708614969143673.webp,
4-CZL3BB5KNBBGHE,Chalong - Charcoal Grill Meat - One Raffles Place,"Western, Thai, BBQ & Grill",4.4,35,1.534,False,1.2842756249999998,103.8512289,,https://food-cms.grab.com/compressed_webp/merchants/4-CZL3BB5KNBBGHE/hero/ce44509f4a044d4db864518716bc98d0_1595909978142566930.webp,
SGDD11205,Toast Box - Phillip Street,"Local & Malaysian, Breakfast & Brunch, Drinks & Beverages",4,30,2.635,False,1.2847615961954273,103.84985212857143,,https://food-cms.grab.com/compressed_webp/merchants/SGDD11205/hero/fbcf359dc72c45b589de99074d908308_1710758123415296457.webp,
SGDD06836,Gado & Grill - One Raffles Place,"Bento, Fried Chicken, Group Friendly",4.6,30,1.68,False,1.2842647988995544,103.8511856,,https://food-cms.grab.com/compressed_webp/merchants/SGDD06836/hero/GadoNGrill_Hero_16x9_1.webp,
4-C34ULBUAENKKN2,Humble Bakery - One Raffles Place,"Bakery & Cake, Cakes & Bakeries",5,25,1.575,False,1.284302274,103.8509881,,https://food-cms.grab.com/compressed_webp/merchants/4-C34ULBUAENKKN2/hero/5a38769db2664463a945e0bec096c3d4_1680171134213683822.webp,
4-C3KBLATWN8L1TN,Smile Martabak - Funan,"Indonesian, Dessert, Halal",4.1,30,0.835,False,1.29149,103.850565,,https://food-cms.grab.com/compressed_webp/merchants/4-C3KBLATWN8L1TN/hero/ebe94f4b9bae4103bcc2ced051e7cef8_1653379940746943561.webp,
4-C26ZJFWXN3NHHA,The Alley - Funan,"Drinks & Beverages, Coffee & Tea, Bubble Tea, Group Friendly",4.5,25,0.554,True,1.29151257,103.8506293,,https://food-cms.grab.com/compressed_webp/merchants/4-C26ZJFWXN3NHHA/hero/519328cccd5e4a1d9d26441949ebe11c_1652095456826891218.webp,"['zeusPromoShortTag', 'mfcPromoTag']"
4-C3THEXDDT62YNA,Super Coco - Funan,"Dessert, Drinks & Beverages, Bubble Tea, Group Friendly",4.6,30,0.883,False,1.291329,103.850162,,https://food-cms.grab.com/compressed_webp/merchants/4-C3THEXDDT62YNA/hero/9148b833d9554943a9c20cd13dfbe6c1_1660725519225296127.webp,
4-C22UMAVDRYDYCE,Cat & The Fiddle - Raffles Place MRT Station,"Frozen Food, Bakery & Cake, Dessert, Halal",4.8,25,1.625,True,1.284213567,103.8515443,,https://food-cms.grab.com/compressed_webp/merchants/4-C22UMAVDRYDYCE/hero/145c5d33-7361-4d30-be0a-e75637a4c5d1__store_cover__2024__04__05__09__32__11.webp,['zeusPromoShortTag']
SGDD08841,Un-Yang-Kor-Dai - South Bridge,"Thai, Noodles, Islandwide Delivery, MICHELIN Bib Gourmand, Salad",4.6,35,1.191,False,1.2871979,103.84811196527582,,https://food-cms.grab.com/compressed_webp/merchants/SGDD08841/hero/0ecba0291b304534983a7dc74e4f1aa0_1624884414939821160.webp,
SGDD00739,Lucky Saigon - North Canal Road,"Snack, Noodles, Vegetarian Friendly",4.2,25,1.472,False,1.2862877,103.84841596,,https://food-cms.grab.com/compressed_webp/merchants/SGDD00739/hero/6b03063c89cd499480f82eff4e6d7569_1588940685452430037.webp,
4-C2BTTP4CCX6VGT,Poke Theory - Change Alley Mall,"Salad, Healthy, Vegan, Halal, Group Friendly",4.3,35,1.713,False,1.2841943,103.85193480000001,,https://food-cms.grab.com/compressed_webp/merchants/4-C2BTTP4CCX6VGT/hero/ad2967e992f045f09697c5f82196b41b_1603087663607775907.webp,
4-C2X1T3VTTKAGLX,Omnivore - Oxley @ Raffles,"Western, Salad, Group Friendly",4.5,30,1.739,False,1.284233878,103.8523492,,https://food-cms.grab.com/compressed_webp/merchants/4-C2X1T3VTTKAGLX/hero/1a534df6aa604783a3f81a82e33238f4_1631172755985082885.webp,
4-C2E3GCCFEEWXAN,Sanook Kitchen - Funan Mall,Thai,4.3,30,0.887,False,1.2913950387570527,103.85024709090908,,https://food-cms.grab.com/compressed_webp/merchants/4-C2E3GCCFEEWXAN/hero/5585b3c3b9b9491cbf4acb63f4540e3d_1609933011550521206.webp,
4-C2VDKCCGAZDEN2,Ikigai Izakaya - The Riverwalk,Japanese,,25,1.212,False,1.288854527,103.8481226,,https://food-cms.grab.com/compressed_webp/merchants/4-C2VDKCCGAZDEN2/hero/bab9a55e36164c5c8c6dc777d96cafd0_1624354447742454144.webp,
4-C32ET3DULETBEA,&Made Gourmet Burgers - Funan Mall,"Burgers, Snack",,25,0.882,False,1.2913216,103.850083,,https://food-cms.grab.com/compressed_webp/merchants/4-C32ET3DULETBEA/hero/26b9dd3402db4704b4e1f2245e6f4210_1677484993350407583.webp,
4-CZEXGY4XWGNBTE,Ajumma's - Funan,"Local & Malaysian, Korean",4.3,30,0.89,False,1.2913251,103.8500892,,https://food-cms.grab.com/compressed_webp/merchants/4-CZEXGY4XWGNBTE/hero/c65126ed732743628bfe9de9e287e21b_1678693356179451758.webp,
4-C2UTLUVJAYWHTX,The Sandwich Shop - Hitachi Tower,"Western, Breakfast & Brunch, Snack, Group Friendly",4.4,30,1.748,False,1.2842471760851975,103.8525017513587,,https://food-cms.grab.com/compressed_webp/merchants/4-C2UTLUVJAYWHTX/hero/53d5231a41bd44689471e5c8203ae467_1623661024345109827.webp,
4-CZEUR7LAUCDEC2,Guzman Y Gomez - Funan,"Mexican, Kids Friendly, Healthy, Group Friendly",4.2,30,0.867,True,1.2914432940603717,103.85034534025522,,https://food-cms.grab.com/compressed_webp/merchants/4-CZEUR7LAUCDEC2/hero/16f3e885-9c12-4cb3-a2b6-1d0b1d39d182__store_cover__2023__10__02__02__43__18.webp,['zeusPromoShortTag']
4-CZJTAFBYGNLEEA,Yakiniku Shokudo - Funan Mall,"Japanese, BBQ, Grill",4.8,30,0.887,False,1.2913524,103.8501395,,https://food-cms.grab.com/compressed_webp/merchants/4-CZJTAFBYGNLEEA/hero/398bb52fe75040418354af14fa6efb5d_1669623900775878750.webp,
SGDD08898,Co Nut Ink - Esplanade Theatres On The Bay,"Mart, Beverages, Dessert, Ice Cream",4.3,35,2.192,False,1.2891794631220677,103.85536852111693,,https://food-cms.grab.com/compressed_webp/merchants/SGDD08898/hero/11ede75d9ffe4d59a841adbd7fd9faa0_1648784195527152638.webp,
4-C3VWV8NGC2VULT,Namino Hana - One Raffles Place,"Bento, Drinks & Beverages, Japanese, Salad",5,30,1.593,False,1.2842071997500584,103.85120703339157,,https://food-cms.grab.com/compressed_webp/merchants/4-C3VWV8NGC2VULT/hero/f885f5c110cb4162850fd85bfc6d4c94_1665453949003261890.webp,
4-CZAWBCC1SEVYEA,Kebabs Faktory - Funan,"Salad, Healthy, Halal, Fast Food, Group Friendly",4,25,0.865,False,1.291488,103.850411,,https://food-cms.grab.com/compressed_webp/merchants/4-CZAWBCC1SEVYEA/hero/84f61af1e707486382eeec3dda8d734b_1712132024381532507.webp,
4-C2CUKAU3SGNYTE,CHICHA San Chen - Change Alley,"Drinks & Beverages, Coffee & Tea, Bubble Tea, Group Friendly",4.5,35,1.831,False,1.284154,103.851789,,https://food-cms.grab.com/compressed_webp/merchants/4-C2CUKAU3SGNYTE/hero/bd32a4cef2fe42349d2e283d084df81f_1712684666772168144.webp,
4-C2VKJ3U2C2JZTN,WOK HEY - Funan,"Bento, Chinese, Local & Malaysian, Halal, Group Friendly",4.4,30,0.868,False,1.2915452804469254,103.8505320292112,,https://food-cms.grab.com/compressed_webp/merchants/4-C2VKJ3U2C2JZTN/hero/3514944a53414a55849bcbbbdd3c320d_1714628938555436876.webp,
4-C6JECJ5KCUNYTJ,Gion Gion - One Raffles Place,"Breakfast & Brunch, Vietnamese, Coffee & Tea",,25,1.544,False,1.284186848227927,103.85120508087074,,https://food-cms.grab.com/compressed_webp/merchants/4-C6JECJ5KCUNYTJ/hero/8e8b8013c6a2472ead8bc92429d2342c_1710492424543362000.webp,
4-CZAJVFBBCXNJEN,Tea Pulse - Royal Group Building,"Drinks & Beverages, Coffee & Tea, Bubble Tea, Group Friendly",4.8,30,2.377,False,1.28469173,103.84980293846154,,https://food-cms.grab.com/compressed_webp/merchants/4-CZAJVFBBCXNJEN/hero/807c11a26b0a42d4ad1713a6d9ce4569_1623064183359890390.webp,
SGDD09015,Nanyang Chicken - South Bridge Road,"Bento, Local & Malaysian, Chinese",3.9,25,1.184,False,1.2871673745712886,103.848049,,https://food-cms.grab.com/compressed_webp/merchants/SGDD09015/hero/cd3652c3132542aab41bd41e982fd9d8_1591241745442197947.webp,
SGDD08530,Fun Toast - One Raffles Place,"Local & Malaysian, Breakfast & Brunch, Coffee & Tea",4,30,1.544,False,1.2841922428571428,103.851137,,https://food-cms.grab.com/compressed_webp/merchants/SGDD08530/hero/FunToast_Hero_16x9.webp,
4-C2UWA3VBTACTA2,Manam - Upper Circular Road,"Indian, Snack, Alcohol",3.9,30,1.214,False,1.2887344,103.848032,,https://food-cms.grab.com/compressed_webp/merchants/4-C2UWA3VBTACTA2/hero/511b1cf1eae84cd8b6eff837cc868eda_1623306641916854774.webp,
SGDD03136,Urban Mix - One Raffles Place,"Mexican, Salad, Vegetarian, Healthy, Group Friendly",4.6,35,1.576,False,1.284175,103.8511379,,https://food-cms.grab.com/compressed_webp/merchants/SGDD03136/hero/e479267ce9844b97861927f0b9cbe076_1592708033187720808.webp,
4-C2B1RVCEGEEDJA,Mr. Coconut - One Raffles Place,"Drinks & Beverages, Bubble Tea, Dessert",4.7,30,1.577,True,1.284162,103.851186,,https://food-cms.grab.com/compressed_webp/merchants/4-C2B1RVCEGEEDJA/hero/a8b55f446d164b279c5b1fa81f4711f7_1711595106782077518.webp,['zeusPromoShortTag']
4-C3JTGTBXJAXXR2,Little Ribbons Pasta Co. - Funan,"Italian, Pasta, Western",4.6,30,0.873,False,1.29135,103.84999,,https://food-cms.grab.com/compressed_webp/merchants/4-C3JTGTBXJAXXR2/hero/5d60888933724a0e971a3986c2baa767_1651051420887155295.webp,
4-C2EVEBLHCXMJNJ,Fish Soup Paradise - Raffles Place,"Porridge, Chinese, Local & Malaysian",3.9,35,1.715,False,1.284115030353823,103.85201319628734,,https://food-cms.grab.com/compressed_webp/merchants/4-C2EVEBLHCXMJNJ/hero/1950c07d24d643699d14257d97865ae0_1611895117242343351.webp,
4-C4NEA2WHT6VXAA,Fun Wan - CIMB Plaza,"Chinese, Vegetarian Friendly, Local & Malaysian, Drinks & Beverages",4.8,30,1.715,False,1.284112614294236,103.85201402649979,,https://food-cms.grab.com/compressed_webp/merchants/4-C4NEA2WHT6VXAA/hero/733cc462-f3f5-4912-bfd9-aa128e2ceea7__store_cover__2023__11__03__09__18__51.webp,
4-C6B1MFC2T8JCV6,Ha Jun Korean - CIMB Plaza,"Japanese, Korean, Bento",4.6,30,1.739,False,1.2841208451045,103.8521381349972,,https://food-cms.grab.com/compressed_webp/merchants/4-C6B1MFC2T8JCV6/hero/40d8f19b82a44205875f2c5c2c1e5999_1704182340701550637.webp,
4-CY5WJUTKJ24BNT,Dungeon by II Fiore - Raffles Place,"Chinese, Pizza, Pasta",4.3,30,1.715,False,1.2841096278873934,103.85201368386922,,https://food-cms.grab.com/compressed_webp/merchants/4-CY5WJUTKJ24BNT/hero/d94dabe22bf148d68185d3104d206e81_1578644097066530530.webp,
4-C3VKNTDUFBXATX,Adam Road Mee Soto - Oxley @ Raffles,"Local & Malaysian, Drinks & Beverages, Noodles",4.5,30,1.701,False,1.284118,103.852141,,https://food-cms.grab.com/compressed_webp/merchants/4-C3VKNTDUFBXATX/hero/78d88e9d0a4445f196ce4a79ae891c34_1666933002306927925.webp,
4-C2UEME3ART53C6,Kotobuki Japanese Restaurant - One Raffles Place,"Bento, Japanese, Sushi, Group Friendly",2.6,25,1.587,False,1.2842055541701487,103.85088724404521,,https://food-cms.grab.com/compressed_webp/merchants/4-C2UEME3ART53C6/hero/97e89f7c44294f6ea1ffd99136de343a_1622517331108045455.webp,
4-C33YV6JWRJBYCT,Hennessy Duck - North Bridge Road,"Local & Malaysian, Noodles, Fried Chicken",3.5,25,0.645,True,1.291336,103.849929,,https://food-cms.grab.com/compressed_webp/merchants/4-C33YV6JWRJBYCT/hero/3b9db62a-e393-48b0-9c33-13bca6933687__store_cover__2023__12__14__07__25__11.webp,"['mfcPromoTag', 'mfcPromoTag']"
4-CYUTT6CDRUXXL6,Paradise Dynasty - Funan,"Chinese, Noodles, Rice",4.6,30,0.913,True,1.2916398986687483,103.85064630185201,,https://food-cms.grab.com/compressed_webp/merchants/4-CYUTT6CDRUXXL6/hero/f38e1fa2989d430490e2d986bec50e54_1577068392228060023.webp,"['zeusPromoShortTag', 'mfcPromoTag']"
4-C4B1R35FNF3AJA,Paninoteca by d.o.c - South Bridge,"Breakfast & Brunch, Italian, Western",,35,1.177,False,1.287321,103.847976,,https://food-cms.grab.com/compressed_webp/merchants/4-C4B1R35FNF3AJA/hero/71eca09e-6ce1-4a70-9ea5-1e492c527a47__store_cover__2023__05__12__00__41__35.webp,
4-C3LFA2NHGJ2BAN,espresso.doc - Chan Brother @ 68,"Pizza, Sandwiches, Breakfast, Coffee, Juice",4.4,30,1.177,False,1.287320684,103.8479759,,https://food-cms.grab.com/compressed_webp/merchants/4-C3LFA2NHGJ2BAN/hero/25fb1bd8cb40446dacf77c30400aad14_1680599844600682282.webp,
4-CYUWR4KCVBLYGN,umisushi - One Raffles Place,"Japanese, Bento, Sushi, Group Friendly",4.2,30,1.58,False,1.284138,103.851164,,https://food-cms.grab.com/compressed_webp/merchants/4-CYUWR4KCVBLYGN/hero/94097cc7c6c740f08238498d0e07b39b_1589252420929220216.webp,
4-CYXVJA6WAB3TAJ,Eventasty Noodle Bar 一碗田拉面 - Funan,"Local & Malaysian, Chinese, Noodles, BBQ & Grill",4.4,25,0.646,False,1.2912672692190004,103.8497891,,https://food-cms.grab.com/compressed_webp/merchants/4-CYXVJA6WAB3TAJ/hero/83cc6657ad9d43a98fd0e67d9b935c14_1604478171141843417.webp,
4-C2XWJRCGEJKBGN,Kopifellas - Change Alley Mall,"Chinese, Coffee & Tea, Drinks & Beverages, Dim Sum",4.9,25,1.716,False,1.28408055,103.8519161,,https://food-cms.grab.com/compressed_webp/merchants/4-C2XWJRCGEJKBGN/hero/42cd8cb5b0204026a5a677890cf1230d_1629352918771691664.webp,
4-CY6XVVMJBE5FRE,Tiong Bahru Bakery - Funan,"Drinks & Beverages, Bakery & Cake, Dessert, Coffee & Tea, French",4.4,30,0.886,True,1.291366,103.849947,,https://food-cms.grab.com/compressed_webp/merchants/4-CY6XVVMJBE5FRE/hero/b3d7e0204fd341ccb16c936165203d32_1669705952534073373.webp,['zeusPromoShortTag']
4-C2TJDECDJJEWVT,Go Rogue - North Canal Road,"Japanese, Salad, Rice Bowls",4.6,30,1.486,False,1.286403777370117,103.84822901073294,,https://food-cms.grab.com/compressed_webp/merchants/4-C2TJDECDJJEWVT/hero/076f306f0e7e4d9898ef956de52f116c_1714889189725727776.webp,
4-CY5ERECHCEEKNE,Nasty Cookie Factory - Funan,"Bakery & Cake, Snacks, Group Friendly",4.5,20,0.857,True,1.2916424861264864,103.85055984287857,,https://food-cms.grab.com/compressed_webp/merchants/4-CY5ERECHCEEKNE/hero/8e9020c66f144ad18f5b7e2ecc583a69_1618301767812171143.webp,['zeusPromoShortTag']
SGDD00526,Gin Khao - One Raffles Place,"Thai, Noodles",3.6,30,1.594,False,1.284133,103.850974,,https://food-cms.grab.com/compressed_webp/merchants/SGDD00526/hero/426b9ab8df2642f8a956fada429fb41b_1657362798154774869.webp,
4-CZDWLYEBLF2XGT,Flavours by Saute - Funan,"Ramen, Halal, Healthy, Noodles, Vegan",4.6,30,0.908,False,1.291416,103.8499566375,,https://food-cms.grab.com/compressed_webp/merchants/4-CZDWLYEBLF2XGT/hero/640ef6353718460a9059e477dc904ec9_1587709854224087389.webp,
4-C2KFCVE1NZJXL6,Komala's - Change Alley Mall,"Indian, Vegetarian Friendly",4.5,35,1.715,False,1.28405707,103.8521807,,https://food-cms.grab.com/compressed_webp/merchants/4-C2KFCVE1NZJXL6/hero/a0fae3f428a143b78115a789988d7602_1612514897725412240.webp,
4-CYMFLRLTRA2WGX,Tip Top Curry Puff - One Raffles Place,"Drinks & Beverages, Snack, Noodles, Group Friendly",4.6,35,1.618,False,1.2840816,103.8511791,,https://food-cms.grab.com/compressed_webp/merchants/4-CYMFLRLTRA2WGX/hero/7ca437943d314686829e8c8ec63794a7_1566539714117798953.webp,
4-C2TWVLLTCK2BGX,Joah Korean Restaurant - One Raffles Place,"Frozen Food, Korean",4.6,30,1.555,False,1.28406407,103.8511111,,https://food-cms.grab.com/compressed_webp/merchants/4-C2TWVLLTCK2BGX/hero/261e237dc5a44b86a53da9773b5c6a2b_1621419170538765594.webp,
SGDD05316,Greendot - Raffles Place,"Healthy, Noodles, Vegan",4.4,30,1.657,True,1.284083,103.851,,https://food-cms.grab.com/compressed_webp/merchants/SGDD05316/hero/Green_Dot_Hero_16x9.webp,['zeusPromoShortTag']
SGDD11568,The Soup Spoon - Raffles Xchange,"Soup, Western, Vegetarian Friendly, Healthy, Halal",4.4,35,1.698,True,1.2840148955530282,103.85148115900012,,https://food-cms.grab.com/compressed_webp/merchants/SGDD11568/hero/18984c57c2d4490a82ffcc6b57f05b04_1650441660190663374.webp,['zeusPromoShortTag']
4-CYN1J3LAAUTVHE,Twelve Cupcakes - One Raffles Place,"Mart, Snacks, Dessert",4.3,25,1.617,True,1.2840524,103.8511598,,https://food-cms.grab.com/compressed_webp/merchants/4-CYN1J3LAAUTVHE/hero/66d3a2e826e6458b9326abfdd2af126c_1559875284825710990.webp,['zeusPromoShortTag']
4-C3BUR2NCFEBJA6,Upshot Coffee - One Raffles Place,"Coffee & Tea, Drinks & Beverages, Western",4.5,30,1.555,False,1.284060382,103.8511007,,https://food-cms.grab.com/compressed_webp/merchants/4-C3BUR2NCFEBJA6/hero/88f34e1214624067a15d4cf2224abe11_1654576081263504535.webp,
4-C2LCJP6XFFUTTT,Pasta E Formaggio - Collyer Quay Centre,Italian,3.7,25,1.836,True,1.2840513649753642,103.85241739588892,,https://food-cms.grab.com/compressed_webp/merchants/4-C2LCJP6XFFUTTT/hero/dd127d97e2a24d758f26acef8eb91d99_1614243794368869116.webp,['mfcPromoTag']
4-C34TN7DGA6MBVN,Xiang Gua Li La - North Bridge Road,"Seafood, Chinese",,30,0.911,False,1.291457563,103.8499506,,https://food-cms.grab.com/compressed_webp/merchants/4-C34TN7DGA6MBVN/hero/3d46e717908f41118cbd1f375bde8142_1675130463320082385.webp,
4-C3EGDBAGC62BMA,Chop Kin Mee - 15 Philip Street,"Noodles, Thai",4.3,30,2.362,False,1.284572,103.84973,,https://food-cms.grab.com/compressed_webp/merchants/4-C3EGDBAGC62BMA/hero/a970860b23954039851b01d96068602a_1651562244015542315.webp,
4-CZJBFCJZNUVWT2,Afuri - Funan,"Ramen, Noodles, Japanese",4.1,30,0.919,False,1.2914311222222221,103.8498501,,https://food-cms.grab.com/compressed_webp/merchants/4-CZJBFCJZNUVWT2/hero/676a5043123641d88d215ba295c1fcf6_1590138933245474151.webp,
